Provincia,Tipo Istituto,Codice Principale,Denominazione Principale,Indirizzo,CAP,Comune,Distretto,E-mail,Telefono,Codice Fiscale,Codice,Denominazione,All Students,School Type,Full Address,Latitude,Longitude
Agrigento,ISTITUTO SUPERIORE,AGIS00100X,IIS - UGO FOSCOLO,"VIA PIRANDELLO, 6",92024,CANICATTI',7,AGIS00100X@istruzione.it,922851006,82002070843,AGPC001017,UGO FOSCOLO,295,SEC II,"VIA PIRANDELLO 6, 92024, CANICATTI'",37.3545683,13.8420672
Agrigento,ISTITUTO SUPERIORE,AGIS00100X,IIS - UGO FOSCOLO,"VIA PIRANDELLO, 6",92024,CANICATTI',7,AGIS00100X@istruzione.it,922851006,82002070843,AGPS00101A,A. SCIASCIA,855,SEC II,"VIA PASOLINI, 92024, CANICATTI'",37.3504756,13.840325
Agrigento,ISTITUTO SUPERIORE,AGIS00800P,IIS - TOMMASO FAZELLO,VIA ALCIDE DE GASPERI 10,92019,SCIACCA,1,AGIS00800P@istruzione.it,92521642,83001350848,AGPC008012,TOMMASO FAZELLO,462,SEC II,"VIA ALCIDE DE GASPERI 10, 92019, SCIACCA",37.5155462,13.0799277
Agrigento,ISTITUTO SUPERIORE,AGIS00800P,IIS - TOMMASO FAZELLO,VIA ALCIDE DE GASPERI 10,92019,SCIACCA,1,AGIS00800P@istruzione.it,92521642,83001350848,AGPS008015,ARCHIMEDE,102,SEC II,"VIA MAZZINI 1, 92013, MENFI",37.5981999,12.9665257
Agrigento,ISTITUTO SUPERIORE,AGIS00800P,IIS - TOMMASO FAZELLO,VIA ALCIDE DE GASPERI 10,92019,SCIACCA,1,AGIS00800P@istruzione.it,92521642,83001350848,AGSD00801G,IA GIUSEPPE BONACHIA,201,SEC II,"VIA A.DE GASPERI 14, 92019, SCIACCA",37.5145265,13.0798892
Agrigento,LICEO CLASSICO,AGPC010001,LICEO CLASSICO - EMPEDOCLE,VIA EMPEDOCLE 169,92100,AGRIGENTO,5,AGPC010001@istruzione.it,92220335,80005110848,AGPC010001,LICEO CLASSICO - EMPEDOCLE,865,SEC II,"VIA EMPEDOCLE 169, 92100, AGRIGENTO",37.3097212,13.5832675
Agrigento,ISTITUTO SUPERIORE,AGIS01700D,IIS - LUIGI PIRANDELLO,CONTRADA PARATORE N. 135,92010,BIVONA,3,AGIS01700D@istruzione.it,922983223,80005230844,AGPC01701R,LICEO LUIGI PIRANDELLO,277,SEC II,"CONTRADA PARATORE N. 135, 92010, BIVONA",37.6223224,13.440078
Agrigento,ISTITUTO SUPERIORE,AGIS01700D,IIS - LUIGI PIRANDELLO,CONTRADA PARATORE N. 135,92010,BIVONA,3,AGIS01700D@istruzione.it,922983223,80005230844,AGPM01752B,M. T. DI CALCUTTA - (CORSO SERALE),0,SEC II,"VIA DE GASPERI, 92020, SANTO STEFANO QUISQUINA",37.6272249,13.4895204
Agrigento,ISTITUTO SUPERIORE,AGIS01700D,IIS - LUIGI PIRANDELLO,CONTRADA PARATORE N. 135,92010,BIVONA,3,AGIS01700D@istruzione.it,922983223,80005230844,AGRI017015,ISTITUTO PROFESSIONALE LUIGI PIRANDELLO,183,SEC II,"C.DA SANTA FILOMENA SNC, 92010, BIVONA",37.6153136,13.4352094
Agrigento,ISTITUTO SUPERIORE,AGIS01700D,IIS - LUIGI PIRANDELLO,CONTRADA PARATORE N. 135,92010,BIVONA,3,AGIS01700D@istruzione.it,922983223,80005230844,AGRI01750D,ARCHIMEDE,87,SEC II,"CONTRADA PARATORE N.135, 92012, BIVONA",37.6256496,13.4434873
Agrigento,ISTITUTO SUPERIORE,AGIS01700D,IIS - LUIGI PIRANDELLO,CONTRADA PARATORE N. 135,92010,BIVONA,3,AGIS01700D@istruzione.it,922983223,80005230844,AGTD01701Q,LORENZO PANEPINTO,206,SEC II,"C.DA SANTA FILOMENA SNC, 92010, BIVONA",37.6153136,13.4352094
Agrigento,LICEO CLASSICO,AGPC060002,LICEO CLASSICO - VINCENZO LINARES,"VIA PROF. S. MALFITANO, 2",92027,LICATA,6,AGPC060002@istruzione.it,922772266,81000470849,AGPC060002,LICEO CLASSICO - VINCENZO LINARES,621,SEC II,"VIA PROF. S. MALFITANO 2, 92027, LICATA",37.1022613,13.9420692
Agrigento,ISTITUTO SUPERIORE,AGIS018009,IIS - GIUDICI SAETTA E LIVATINO,VIA LAURICELLA 2,92029,RAVANUSA,7,AGIS018009@istruzione.it,922875745,90021350849,AGPM01801R,GIUDICI SAETTA E LIVATINO,566,SEC II,"VIA LAURICELLA 2, 92029, RAVANUSA",37.2667788,13.9668106
Agrigento,ISTITUTO SUPERIORE,AGIS018009,IIS - GIUDICI SAETTA E LIVATINO,VIA LAURICELLA 2,92029,RAVANUSA,7,AGIS018009@istruzione.it,922875745,90021350849,AGTD01801G,GINO ZAPPA,156,SEC II,"VIA ARCADIPANE 12, Non Disponibile, CAMPOBELLO DI LICATA",37.2632519,13.9179359
Agrigento,ISTITUTO SUPERIORE,AGIS018009,IIS - GIUDICI SAETTA E LIVATINO,VIA LAURICELLA 2,92029,RAVANUSA,7,AGIS018009@istruzione.it,922875745,90021350849,AGTD01850X,GINO ZAPPA,84,SEC II,"Non Disponibile, Non Disponibile, CAMPOBELLO DI LICATA",37.2588067,13.9180186
Agrigento,ISTITUTO MAGISTRALE,AGPM02000Q,LICEO STATALE - MARTIN LUTHER KING,VIALE PIETRO NENNI 136,92026,FAVARA,5,AGPM02000Q@istruzione.it,92232516,80004380848,AGPM02000Q,LICEO STATALE - MARTIN LUTHER KING,958,SEC II,"Viale PIETRO NENNI 136, 92026, FAVARA",37.323276,13.6719211
Agrigento,ISTITUTO SUPERIORE,AGIS021005,IIS - FRANCESCO CRISPI,"VIA PRESTI, 2",92016,RIBERA,2,AGIS021005@istruzione.it,92561523,83002610844,AGPM02101L,IM FRANCESCO CRISPI,740,SEC II,"PIAZZA ZAMENHOF 1, 92016, RIBERA",37.4998487,13.2665183
Agrigento,ISTITUTO SUPERIORE,AGIS021005,IIS - FRANCESCO CRISPI,"VIA PRESTI, 2",92016,RIBERA,2,AGIS021005@istruzione.it,92561523,83002610844,AGRI02101R,I.P.I.A. ACCURSO MIRAGLIA,197,SEC II,"VIA G. VERGA 1, 92016, RIBERA",37.499833,13.269369
Agrigento,ISTITUTO SUPERIORE,AGIS021005,IIS - FRANCESCO CRISPI,"VIA PRESTI, 2",92016,RIBERA,2,AGIS021005@istruzione.it,92561523,83002610844,AGTD02101B,ITCG GIOVANNI XXIII,243,SEC II,"VIA PRESTI N. 2, 92016, RIBERA",37.4981713,13.2601762
Agrigento,ISTITUTO SUPERIORE,AGIS021005,IIS - FRANCESCO CRISPI,"VIA PRESTI, 2",92016,RIBERA,2,AGIS021005@istruzione.it,92561523,83002610844,AGTD02151R,I.T.C.G.GIOVANNI XXIII(CORSO SERALE),54,SEC II,"VIA PRESTI N.2, 92016, RIBERA",37.4981713,13.2601762
Agrigento,ISTITUTO MAGISTRALE,AGPM03000A,LICEO SCIENTIFICO E SCIENZE UMANE POLITI,VIA ACRONE 12,92100,AGRIGENTO,5,AGPM03000A@istruzione.it,92220535,80003890847,AGPM03000A,LICEO SCIENTIFICO E SCIENZE UMANE POLITI,1407,SEC II,"VIA ACRONE 12, 92100, AGRIGENTO",37.3096388,13.5800994
Agrigento,LICEO SCIENTIFICO,AGPS02000P,LICEO SCIENTIFICO - ENRICO FERMI,VIA PARMA N. 1,92019,SCIACCA,1,AGPS02000P@istruzione.it,92585103,83001490842,AGPS02000P,LICEO SCIENTIFICO - ENRICO FERMI,1090,SEC II,"VIA PARMA N. 1, 92019, SCIACCA",37.5126652,13.0670436
Agrigento,ISTITUTO SUPERIORE,AGIS022001,IIS - G.B. ODIERNA,CORSO SICILIA,92020,PALMA DI MONTECHIARO,6,AGIS022001@istruzione.it,922969227,90027870840,AGPS02201B,LS G.B. ODIERNA,426,SEC II,"CORSO SICILIA, 92020, PALMA DI MONTECHIARO",37.1890274,13.7734916
Agrigento,ISTITUTO SUPERIORE,AGIS022001,IIS - G.B. ODIERNA,CORSO SICILIA,92020,PALMA DI MONTECHIARO,6,AGIS022001@istruzione.it,922969227,90027870840,AGRI02201L,G.B. ODIERNA,92,SEC II,"CORSO SICILIA, 92020, PALMA DI MONTECHIARO",37.1890274,13.7734916
Agrigento,ISTITUTO SUPERIORE,AGIS022001,IIS - G.B. ODIERNA,CORSO SICILIA,92020,PALMA DI MONTECHIARO,6,AGIS022001@istruzione.it,922969227,90027870840,AGRI022501,G.B. ODIERNA,163,SEC II,"Non Disponibile, Non Disponibile, PALMA DI MONTECHIARO",37.1938942,13.7627177
Agrigento,ISTITUTO SUPERIORE,AGIS022001,IIS - G.B. ODIERNA,CORSO SICILIA,92020,PALMA DI MONTECHIARO,6,AGIS022001@istruzione.it,922969227,90027870840,AGTF02201D,G .B. ODIERNA,286,SEC II,"CORSO SICILIA, 92020, PALMA DI MONTECHIARO",37.1890274,13.7734916
Agrigento,ISTITUTO SUPERIORE,AGIS026008,IIS - ARCHIMEDE,"VIA G. BONFIGLIO,44",92022,CAMMARATA,8,AGIS026008@istruzione.it,922909401,93074180840,AGPS02601P,LS ARCHIMEDE CASTELTERMINI,42,SEC II,"VIALE KENNEDY 29, 92025, CASTELTERMINI",37.5401744,13.6376055
Agrigento,ISTITUTO SUPERIORE,AGIS026008,IIS - ARCHIMEDE,"VIA G. BONFIGLIO,44",92022,CAMMARATA,8,AGIS026008@istruzione.it,922909401,93074180840,AGPS02602Q,LS ARCHIMEDE CAMMARATA,133,SEC II,"PIAZZA CRISPI, 92022, CAMMARATA",37.6330517,13.6394468
Agrigento,ISTITUTO SUPERIORE,AGIS026008,IIS - ARCHIMEDE,"VIA G. BONFIGLIO,44",92022,CAMMARATA,8,AGIS026008@istruzione.it,922909401,93074180840,AGRI026021,IPSIA ARCHIMEDE,94,SEC II,"VIA MONS. PADALINO, 92025, CASTELTERMINI",37.5427292,13.6429049
Agrigento,ISTITUTO SUPERIORE,AGIS026008,IIS - ARCHIMEDE,"VIA G. BONFIGLIO,44",92022,CAMMARATA,8,AGIS026008@istruzione.it,922909401,93074180840,AGRI026508,ARCHIMEDE,83,SEC II,"Non Disponibile, Non Disponibile, CASTELTERMINI",37.5408929,13.6433045
Agrigento,ISTITUTO SUPERIORE,AGIS026008,IIS - ARCHIMEDE,"VIA G. BONFIGLIO,44",92022,CAMMARATA,8,AGIS026008@istruzione.it,922909401,93074180840,AGTD02601E,ITIA ARCHIMEDE,98,SEC II,"VIALE KENNEDY N. 29, 92025, CASTELTERMINI",37.5401744,13.6376055
Agrigento,ISTITUTO SUPERIORE,AGIS026008,IIS - ARCHIMEDE,"VIA G. BONFIGLIO,44",92022,CAMMARATA,8,AGIS026008@istruzione.it,922909401,93074180840,AGTF02601R,ITI ARCHIMEDE,323,SEC II,"VIA G. BONFIGLIO44, 92022, CAMMARATA",37.6327501,13.6387997
Agrigento,LICEO SCIENTIFICO,AGPS030009,LICEO SCIENTIFICO - LEONARDO,VIALE DELLA VITTORIA,92100,AGRIGENTO,5,AGPS030009@istruzione.it,92229990,80004050847,AGPS030009,LICEO SCIENTIFICO - LEONARDO,1488,SEC II,"VIALE DELLA VITTORIA, 92100, AGRIGENTO",37.3060408,13.5924076
Agrigento,ISTITUTO SUPERIORE,AGIS027004,IIS - GALILEO GALILEI,VIA PIRANDELLO 4,92024,CANICATTI',7,AGIS027004@istruzione.it,922852999,90029140846,AGRA027014,R.LIVATINO SEZ. ASSOCIATA,76,SEC II,"VIA PIRANDELLO 69, 92024, CANICATTI'",37.3542893,13.8419257
Agrigento,ISTITUTO SUPERIORE,AGIS027004,IIS - GALILEO GALILEI,VIA PIRANDELLO 4,92024,CANICATTI',7,AGIS027004@istruzione.it,922852999,90029140846,AGRA02751D,R.LIVATINO - SERALE,145,SEC II,"Non Disponibile, Non Disponibile, CANICATTI'",37.3581092,13.8497806
Agrigento,ISTITUTO SUPERIORE,AGIS027004,IIS - GALILEO GALILEI,VIA PIRANDELLO 4,92024,CANICATTI',7,AGIS027004@istruzione.it,922852999,90029140846,AGTD02701A,ITCG GALILEO GALILEI,698,SEC II,"VIA PIRANDELLO 4, 92024, CANICATTI'",37.3548467,13.8429728
Agrigento,ISTITUTO SUPERIORE,AGIS027004,IIS - GALILEO GALILEI,VIA PIRANDELLO 4,92024,CANICATTI',7,AGIS027004@istruzione.it,922852999,90029140846,AGTD02702B,FEDERICO II,138,SEC II,"VIA BANDINO, 92028, NARO",37.2972305,13.7930797
Agrigento,ISTITUTO SUPERIORE,AGIS01600N,IIS - DON MICHELE ARENA,VIA NENNI,92019,SCIACCA,1,AGIS01600N@istruzione.it,92522510,92002960844,AGRC01601L,I.P.S. COMM.E TURIS.SAVERIO FRISCIA,66,SEC II,"VIA ETA, 92013, MENFI",37.6008481,12.9730223
Agrigento,ISTITUTO SUPERIORE,AGIS01600N,IIS - DON MICHELE ARENA,VIA NENNI,92019,SCIACCA,1,AGIS01600N@istruzione.it,92522510,92002960844,AGRC01602N,IPSCT SAVERIO FRISCIA,102,SEC II,"VIA NENNI, 92019, SCIACCA",37.5082259,13.06083
Agrigento,ISTITUTO SUPERIORE,AGIS01600N,IIS - DON MICHELE ARENA,VIA NENNI,92019,SCIACCA,1,AGIS01600N@istruzione.it,92522510,92002960844,AGRH01601T,SCIACCA,14,SEC II,"SEDE CARCERARIA, 92019, SCIACCA",37.5086753,13.0782746
Agrigento,ISTITUTO SUPERIORE,AGIS01600N,IIS - DON MICHELE ARENA,VIA NENNI,92019,SCIACCA,1,AGIS01600N@istruzione.it,92522510,92002960844,AGRI016019,I.P.S.I.A. ACCURSIO MIRAGLIA,458,SEC II,"CORSO ACCURSIO MIRAGLIA 13/15, 92019, SCIACCA",37.5118103,13.0702438
Agrigento,ISTITUTO SUPERIORE,AGIS01600N,IIS - DON MICHELE ARENA,VIA NENNI,92019,SCIACCA,1,AGIS01600N@istruzione.it,92522510,92002960844,AGTD01601X,ITC DON MICHELE ARENA,358,SEC II,"VIA GIOTTO, 92019, SCIACCA",37.5176136,13.0790834
Agrigento,ISTITUTO SUPERIORE,AGIS01600N,IIS - DON MICHELE ARENA,VIA NENNI,92019,SCIACCA,1,AGIS01600N@istruzione.it,92522510,92002960844,AGTD016519,DON MICHELE ARENA - CORSO SERALE,17,SEC II,"VIA GIOTTO 20, 92019, SCIACCA",37.5171945,13.0797983
Agrigento,ISTITUTO SUPERIORE,AGIS02300R,IPSCEOA - N. GALLO,VIA F. QUARTARARO PITTORE S.N.,92100,AGRIGENTO,5,AGIS02300R@istruzione.it,922604313,93071330844,AGRC02301Q,IP SERV COMM. ENOG. OSPIT. ALB. GALLO,350,SEC II,"VIA F. QUARTARARO PITTORE S.N., 92100, AGRIGENTO",37.3130698,13.5799543
Agrigento,ISTITUTO SUPERIORE,AGIS02300R,IPSCEOA - N. GALLO,VIA F. QUARTARARO PITTORE S.N.,92100,AGRIGENTO,5,AGIS02300R@istruzione.it,922604313,93071330844,AGTF023019,N. GALLO,117,SEC II,"VIA G. LA PIRA, 92014, PORTO EMPEDOCLE",37.297806,13.528578
Agrigento,ISTITUTO SUPERIORE,AGIS02300R,IPSCEOA - N. GALLO,VIA F. QUARTARARO PITTORE S.N.,92100,AGRIGENTO,5,AGIS02300R@istruzione.it,922604313,93071330844,AGTL02301D,ITG BRUNELLESCHI,150,SEC II,"CONTRADA CALCARELLE, 92100, AGRIGENTO",37.316252,13.6033547
Agrigento,ISTITUTO SUPERIORE,AGIS02300R,IPSCEOA - N. GALLO,VIA F. QUARTARARO PITTORE S.N.,92100,AGRIGENTO,5,AGIS02300R@istruzione.it,922604313,93071330844,AGTL02351V,BRUNELLESCHI,93,SEC II,"Non Disponibile, Non Disponibile, AGRIGENTO",37.3088381,13.5857818
Agrigento,ISTITUTO SUPERIORE,AGIS01200A,IIS - CALOGERO AMATO VETRANO,CONTRADA MARCHESA,92019,SCIACCA,1,AGIS01200A@istruzione.it,925992116,92003990840,AGRH01201E,IPSEOA SEN. G.MOLINARI,335,SEC II,"CONTRADA MARCHESA, 92019, SCIACCA",37.5220193,13.026058
Agrigento,ISTITUTO SUPERIORE,AGIS01200A,IIS - CALOGERO AMATO VETRANO,CONTRADA MARCHESA,92019,SCIACCA,1,AGIS01200A@istruzione.it,925992116,92003990840,AGRH01250V,IPSEOA SEN. G.MOLINARI - SERALE,127,SEC II,"Non Disponibile, Non Disponibile, SCIACCA",37.5086753,13.0782746
Agrigento,ISTITUTO SUPERIORE,AGIS01200A,IIS - CALOGERO AMATO VETRANO,CONTRADA MARCHESA,92019,SCIACCA,1,AGIS01200A@istruzione.it,925992116,92003990840,AGTA012016,IST. TECNICO AGRARIO C. AMATO VETRANO,200,SEC II,"C/DA MARCHESA, 92019, SCIACCA",37.5069192,13.0879588
Agrigento,ISTITUTO SUPERIORE,AGIS013006,IIS - F. RE CAPRIATA,VIA CAMPOBELLO,92027,LICATA,6,AGIS013006@istruzione.it,922891227,81000810846,AGRH01301A,F. RE CAPRIATA,179,SEC II,"Via Campobello di Licata 135, 92027, LICATA",37.110256,13.9313326
Agrigento,ISTITUTO SUPERIORE,AGIS013006,IIS - F. RE CAPRIATA,VIA CAMPOBELLO,92027,LICATA,6,AGIS013006@istruzione.it,922891227,81000810846,AGRH01350P,F. RE CAPRIATA,75,SEC II,"Via Campobello, 153, 92027 Licata (AG)",37.1128815,13.9292766
Agrigento,ISTITUTO SUPERIORE,AGIS013006,IIS - F. RE CAPRIATA,VIA CAMPOBELLO,92027,LICATA,6,AGIS013006@istruzione.it,922891227,81000810846,AGTD01301C,ITC F. RE CAPRIATA,196,SEC II,"Via Campobello di Licata 135, 92027, LICATA",37.110256,13.9313326
Agrigento,ISTITUTO SUPERIORE,AGIS013006,IIS - F. RE CAPRIATA,VIA CAMPOBELLO,92027,LICATA,6,AGIS013006@istruzione.it,922891227,81000810846,AGTD01351T,I.T.C. F.RE CAPRIATA CORSO SERALE,0,SEC II,"Via Campobello di Licata 135, 92027, LICATA",37.110256,13.9313326
Agrigento,IST PROF PER I SERVIZI ALBERGHIERI E RISTORAZIONE,AGRH02000C,IPSSAR - G. AMBROSINI,VIA CHE GUEVARA,92026,FAVARA,5,AGRH02000C@istruzione.it,922429331,93011170847,AGRH02000C,IPSSAR - G. AMBROSINI,287,SEC II,"Viale Che Guevara 13, 92026, FAVARA",37.3067103,13.6442294
Agrigento,IST PROF PER I SERVIZI ALBERGHIERI E RISTORAZIONE,AGRH02000C,IPSSAR - G. AMBROSINI,VIA CHE GUEVARA,92026,FAVARA,5,AGRH02000C@istruzione.it,922429331,93011170847,AGRH02001D,I.P.ALB.RIST.CASA CIRCONDARIALE,119,SEC II,"Contrada Petrusa, 92100 Agrigento (AG)",37.3450659,13.4770423
Agrigento,IST PROF PER I SERVIZI ALBERGHIERI E RISTORAZIONE,AGRH02000C,IPSSAR - G. AMBROSINI,VIA CHE GUEVARA,92026,FAVARA,5,AGRH02000C@istruzione.it,922429331,93011170847,AGRH02050T,G. AMBROSINI,145,SEC II,"Viale Che Guevara 11, 92026, FAVARA",37.3066842,13.6444039
Agrigento,ISTITUTO SUPERIORE,AGIS01100E,IIS - ENRICO FERMI,VIA F.RE GRILLO SN,92027,LICATA,6,AGIS01100E@istruzione.it,922893987,91001430841,AGRI011016,FERMI,58,SEC II,"VIA CAMPOBELLO, 92027, LICATA",37.110256,13.9313326
Agrigento,ISTITUTO SUPERIORE,AGIS01100E,IIS - ENRICO FERMI,VIA F.RE GRILLO SN,92027,LICATA,6,AGIS01100E@istruzione.it,922893987,91001430841,AGTL011017,INES GIGANTI CURELLA,445,SEC II,"VIA FILIPPO RE GRILLO (C. DA CANNELLE), 92027, LICATA",37.1143655,13.9133372
Agrigento,ISTITUTO SUPERIORE,AGIS01100E,IIS - ENRICO FERMI,VIA F.RE GRILLO SN,92027,LICATA,6,AGIS01100E@istruzione.it,922893987,91001430841,AGTL01151L,I.T.G.I.G.CURELLA (CORSO SERALE),15,SEC II,"VIA PALMA N.322, 92027, LICATA",37.1135625,13.9147389
Agrigento,ISTITUTO SUPERIORE,AGIS02400L,IIS - ENRICO FERMI,VIA MINIERA TACCIA CACI PIRANDELLO S.N.C.,92021,ARAGONA,4,AGIS02400L@istruzione.it,922602498,93071340843,AGRI024018,ENRICO FERMI,399,SEC II,"VIA MINIERA TACCIA CACI PIRANDELLO, 92021, ARAGONA",37.4382028,13.6153256
Agrigento,ISTITUTO SUPERIORE,AGIS02400L,IIS - ENRICO FERMI,VIA MINIERA TACCIA CACI PIRANDELLO S.N.C.,92021,ARAGONA,4,AGIS02400L@istruzione.it,922602498,93071340843,AGRI024029,IST.PROF.INDUSTRIA E ARTIGIANATO MARCONI,101,SEC II,"VIALE CHE GUEVARA, 92026, FAVARA",37.3063005,13.6461279
Agrigento,ISTITUTO SUPERIORE,AGIS02400L,IIS - ENRICO FERMI,VIA MINIERA TACCIA CACI PIRANDELLO S.N.C.,92021,ARAGONA,4,AGIS02400L@istruzione.it,922602498,93071340843,AGRI02403A,IST.PROF.IND. E ARTIGIANATO - RACALMUTO,129,SEC II,"VIA SOLDATO CARBONE SN, 92020, RACALMUTO",37.4054946,13.7315497
Agrigento,ISTITUTO SUPERIORE,AGIS02400L,IIS - ENRICO FERMI,VIA MINIERA TACCIA CACI PIRANDELLO S.N.C.,92021,ARAGONA,4,AGIS02400L@istruzione.it,922602498,93071340843,AGRI02452P,IPIA MARCONI - CORSO SERALE,74,SEC II,"VIALE CHE GUEVARA, 92026, FAVARA",37.3063005,13.6461279
Agrigento,ISTITUTO SUPERIORE,AGIS02400L,IIS - ENRICO FERMI,VIA MINIERA TACCIA CACI PIRANDELLO S.N.C.,92021,ARAGONA,4,AGIS02400L@istruzione.it,922602498,93071340843,AGTF024015,E. FERMI,380,SEC II,"VIA MINIERA TACCIA CACI PIRANDELLO, 92021, ARAGONA",37.4382028,13.6153256
Agrigento,ISTITUTO TECNICO COMMERCIALE,AGTD09000R,I.T.E.T. LEONARDO SCIASCIA,VIA RICCARDO QUARTARARO S.N.C.,92100,AGRIGENTO,5,AGTD09000R@istruzione.it,922619319,93006910843,AGTD09000R,I.T.E.T. LEONARDO SCIASCIA,642,SEC II,"Via Quartararo Pittore 7, 92100, AGRIGENTO",37.3203108,13.5998041
Agrigento,ISTITUTO TECNICO COMMERCIALE,AGTD09000R,I.T.E.T. LEONARDO SCIASCIA,VIA RICCARDO QUARTARARO S.N.C.,92100,AGRIGENTO,5,AGTD09000R@istruzione.it,922619319,93006910843,AGTD090506,I.T.C. LEONARDO SCIASCIA CORSO SERALE,59,SEC II,"Via GIORGIO LA PIRA 1, 92014, PORTO EMPEDOCLE",37.2973609,13.5269227
Caltanissetta,ISTITUTO SUPERIORE,CLIS007007,"I.I.S. ""C.M. CARAFA""","PIAZZA CARLO MARIA CARAFA, SNC",93013,MAZZARINO,11,CLIS007007@istruzione.it,934381664,90012980851,CLPC00701E,LICEO DELLE SCIENZE UMANE ARTALE,272,SEC II,"PIAZZA CARLO MARIA CARAFA, 93013, MAZZARINO",37.3018995,14.1993839
Caltanissetta,ISTITUTO SUPERIORE,CLIS007007,"I.I.S. ""C.M. CARAFA""","PIAZZA CARLO MARIA CARAFA, SNC",93013,MAZZARINO,11,CLIS007007@istruzione.it,934381664,90012980851,CLPS00701N,CARLO MARIA CARAFA RIESI,160,SEC II,"VIALE LUIGI EINAUDI 1, 93016, RIESI",37.2792638,14.089719
Caltanissetta,ISTITUTO SUPERIORE,CLIS007007,"I.I.S. ""C.M. CARAFA""","PIAZZA CARLO MARIA CARAFA, SNC",93013,MAZZARINO,11,CLIS007007@istruzione.it,934381664,90012980851,CLRA007017,IP SERVIZI AGRICOLTURA E SVILUPPO RURALE,120,SEC II,"CONTRADA COMMENDA, 93013, MAZZARINO",37.304361,14.2150691
Caltanissetta,ISTITUTO SUPERIORE,CLIS007007,"I.I.S. ""C.M. CARAFA""","PIAZZA CARLO MARIA CARAFA, SNC",93013,MAZZARINO,11,CLIS007007@istruzione.it,934381664,90012980851,CLRA00751L,CORSO SERALE AGRARIO - MAZZARINO-RIESI,77,SEC II,"CONTRADA COMMENDA, 93013, MAZZARINO",37.304361,14.2150691
Caltanissetta,ISTITUTO SUPERIORE,CLIS007007,"I.I.S. ""C.M. CARAFA""","PIAZZA CARLO MARIA CARAFA, SNC",93013,MAZZARINO,11,CLIS007007@istruzione.it,934381664,90012980851,CLRI00701V,CARLO MARIA CARAFA RIESI,135,SEC II,"VIA LUIGI EINAUDI 1, 93016, RIESI",37.2792638,14.089719
Caltanissetta,ISTITUTO SUPERIORE,CLIS007007,"I.I.S. ""C.M. CARAFA""","PIAZZA CARLO MARIA CARAFA, SNC",93013,MAZZARINO,11,CLIS007007@istruzione.it,934381664,90012980851,CLRI007507,CORSO SERALE ALBERGH. - RIESI,54,SEC II,"VIA LUIGI EINAUDI 1, 93016, RIESI",37.2792638,14.089719
Caltanissetta,ISTITUTO SUPERIORE,CLIS007007,"I.I.S. ""C.M. CARAFA""","PIAZZA CARLO MARIA CARAFA, SNC",93013,MAZZARINO,11,CLIS007007@istruzione.it,934381664,90012980851,CLTD00701D,C.M. CARAFA,183,SEC II,"PIAZZA CARLO MARIA CARAFA, 93013, MAZZARINO",37.3018995,14.1993839
Caltanissetta,ISTITUTO SUPERIORE,CLIS007007,"I.I.S. ""C.M. CARAFA""","PIAZZA CARLO MARIA CARAFA, SNC",93013,MAZZARINO,11,CLIS007007@istruzione.it,934381664,90012980851,CLTD00750T,CORSO SERALE - C.A.T. - MAZZARINO,0,SEC II,"Non Disponibile, Non Disponibile, MAZZARINO",37.3046014,14.2114299
Caltanissetta,ISTITUTO SUPERIORE,CLIS008003,"I.I.S. ""VIRGILIO""",CONTRADA PRATO SNC,93014,MUSSOMELI,8,CLIS008003@istruzione.it,934993967,92036100854,CLPC00801A,VIRGILIO,374,SEC II,"C/DA PRATO SNC, 93014, MUSSOMELI",37.5759978,13.7519378
Caltanissetta,ISTITUTO SUPERIORE,CLIS008003,"I.I.S. ""VIRGILIO""",CONTRADA PRATO SNC,93014,MUSSOMELI,8,CLIS008003@istruzione.it,934993967,92036100854,CLRA008013,VIRGILIO,217,SEC II,"C/DA PRATO S.N., 93014, MUSSOMELI",37.5759978,13.7519378
Caltanissetta,ISTITUTO SUPERIORE,CLIS008003,"I.I.S. ""VIRGILIO""",CONTRADA PRATO SNC,93014,MUSSOMELI,8,CLIS008003@istruzione.it,934993967,92036100854,CLRA00850B,CORSO SERALE AGRARIO - MUSSOMELI,118,SEC II,"C/DA PRATO S.N., 93014, MUSSOMELI",37.5759978,13.7519378
Caltanissetta,ISTITUTO SUPERIORE,CLIS01300E,"I.I.S. ""L. RUSSO""","VIA LEONE XIII, 48/D",93100,CALTANISSETTA,9,CLIS01300E@istruzione.it,934554255,80004840858,CLPC01301T,LINGUISTICO L. RUSSO,229,SEC II,"VIA LEONEXIII 48/D, 93100, CALTANISSETTA",37.4899298,14.0438332
Caltanissetta,ISTITUTO SUPERIORE,CLIS01300E,"I.I.S. ""L. RUSSO""","VIA LEONE XIII, 48/D",93100,CALTANISSETTA,9,CLIS01300E@istruzione.it,934554255,80004840858,CLTE013018,LUIGI RUSSO,594,SEC II,"VIA LEONE XIII 48/D, 93100, CALTANISSETTA",37.4899298,14.0438332
Caltanissetta,ISTITUTO SUPERIORE,CLIS01300E,"I.I.S. ""L. RUSSO""","VIA LEONE XIII, 48/D",93100,CALTANISSETTA,9,CLIS01300E@istruzione.it,934554255,80004840858,CLTE01350L,CORSO SERALE BIOTEC. - CALTANISSETTA,49,SEC II,"VIA LEONE XIII 48/D, 93100, CALTANISSETTA",37.4899298,14.0438332
Caltanissetta,ISTITUTO SUPERIORE,CLIS01800N,ESCHILO,"VIA ERITREA, SN",93012,GELA,10,CLIS01800N@istruzione.it,933930051,90028200856,CLPC018011,ESCHILO,446,SEC II,"VIA ERITREA, 93012, GELA",37.0691968,14.2379158
Caltanissetta,ISTITUTO SUPERIORE,CLIS01800N,ESCHILO,"VIA ERITREA, SN",93012,GELA,10,CLIS01800N@istruzione.it,933930051,90028200856,CLPM018015,LICEO SCIENZE UMANE DANTE ALIGHIERI,571,SEC II,"VIALE EUROPA 119, 93012, GELA",37.0705107,14.2306921
Caltanissetta,LICEO CLASSICO,CLPC02000X,"LICEO CLASS.-LING.-COREUT. ""R. SETTIMO""",VIA ROSSO DI SAN SECONDO,93100,CALTANISSETTA,9,CLPC02000X@istruzione.it,93421600,80003410851,CLPC02000X,LICEO CLASS.-LING.-COREUT. R. SETTIMO,688,SEC II,"VIA ROSSO DI SAN SECONDO, 93100, CALTANISSETTA",37.4931076,14.0548294
Caltanissetta,ISTITUTO SUPERIORE,CLIS01400A,"I.I.S. ""A. MANZONI-F. JUVARA """,VIALE TRIESTE,93100,CALTANISSETTA,9,CLIS01400A@istruzione.it,934598909,80004710853,CLPM01401T,LICEO S. U. E MUSICALE A. MANZONI,518,SEC II,"VIALE TRIESTE 169, 93100, CALTANISSETTA",37.4949258,14.052509
Caltanissetta,ISTITUTO SUPERIORE,CLIS01400A,"I.I.S. ""A. MANZONI-F. JUVARA """,VIALE TRIESTE,93100,CALTANISSETTA,9,CLIS01400A@istruzione.it,934598909,80004710853,CLSD014017,F. JUVARA,174,SEC II,"VIA BELVEDERE S.N., 93017, SAN CATALDO",37.4887635,13.9963529
Caltanissetta,ISTITUTO SUPERIORE,CLIS01400A,"I.I.S. ""A. MANZONI-F. JUVARA """,VIALE TRIESTE,93100,CALTANISSETTA,9,CLIS01400A@istruzione.it,934598909,80004710853,CLSD01450G,CORSO SERALE - ARTI FIG. - SAN CATALDO,27,SEC II,"VIA BELVEDERE S.N., 93017, SAN CATALDO",37.4887635,13.9963529
Caltanissetta,ISTITUTO SUPERIORE,CLIS002004,"I.I.S. ""L. DA VINCI""",CARLO ALBERTO DALLA CHIESA SNC,93015,NISCEMI,10,CLIS002004@istruzione.it,933953082,82002400859,CLPS00201E,SCIENT. CLASS. LING. E SCIENZE UMANE,773,SEC II,"VIA C.A. DALLA CHIESA S.N., 93015, NISCEMI",37.1405721,14.3982933
Caltanissetta,ISTITUTO SUPERIORE,CLIS002004,"I.I.S. ""L. DA VINCI""",CARLO ALBERTO DALLA CHIESA SNC,93015,NISCEMI,10,CLIS002004@istruzione.it,933953082,82002400859,CLRA002014,IST. PROF. SERV. AGRIC. E SV. RUR.,123,SEC II,"VIA CARLO ALBERTO DALLA CHIESA SNC, 93015, NISCEMI",37.1477983,14.3959466
Caltanissetta,ISTITUTO SUPERIORE,CLIS002004,"I.I.S. ""L. DA VINCI""",CARLO ALBERTO DALLA CHIESA SNC,93015,NISCEMI,10,CLIS002004@istruzione.it,933953082,82002400859,CLTD00201A,IST. TECN. AMM. FIN. MARK,125,SEC II,"VIA C.A. DALLA CHIESA S.N., 93015, NISCEMI",37.1405721,14.3982933
Caltanissetta,ISTITUTO SUPERIORE,CLIS01200P,"I.I.S. ""S. MOTTURA""",VIALE DELLA REGIONE 71,93100,CALTANISSETTA,9,CLIS01200P@istruzione.it,934591280,80004820850,CLPS012015,OP. SCIENZE APPLICATE,157,SEC II,"VIALE DELLA REGIONE 71, 93100, CALTANISSETTA",37.4927448,14.0405885
Caltanissetta,ISTITUTO SUPERIORE,CLIS01200P,"I.I.S. ""S. MOTTURA""",VIALE DELLA REGIONE 71,93100,CALTANISSETTA,9,CLIS01200P@istruzione.it,934591280,80004820850,CLTF012017,SETTORE TECNOLOGICO S. MOTTURA,505,SEC II,"VIALE DELLA REGIONE 71, 93100, CALTANISSETTA",37.4927448,14.0405885
Caltanissetta,ISTITUTO SUPERIORE,CLIS01200P,"I.I.S. ""S. MOTTURA""",VIALE DELLA REGIONE 71,93100,CALTANISSETTA,9,CLIS01200P@istruzione.it,934591280,80004820850,CLTF01251L,CORSO SERALE S. MOTTURA - CALTANISSETTA,37,SEC II,"VIALE DELLA REGIONE 71, 93100, CALTANISSETTA",37.4927448,14.0405885
Caltanissetta,ISTITUTO SUPERIORE,CLIS01900D,"I.I.S. ""A. VOLTA""","VIA NINO MARTOGLIO, 1",93100,CALTANISSETTA,9,CLIS01900D@istruzione.it,934591533,92063450859,CLPS01901X,LICEO SCIENTIFICO ALESSANDRO VOLTA,977,SEC II,"VIA NINO MARTOGLIO 1, 93100, CALTANISSETTA",37.4953463,14.0492252
Caltanissetta,ISTITUTO SUPERIORE,CLIS01900D,"I.I.S. ""A. VOLTA""","VIA NINO MARTOGLIO, 1",93100,CALTANISSETTA,9,CLIS01900D@istruzione.it,934591533,92063450859,CLTF019012,A. VOLTA,74,SEC II,"VIA MARTOGLIO, 93100, CALTANISSETTA",37.4958912,14.0486872
Caltanissetta,LICEO SCIENTIFICO,CLPS03000N,"LICEO SCIENT.-LING. ""E. VITTORINI""",VIA PITAGORA S.N.C.,93012,GELA,10,CLPS03000N@istruzione.it,933930594,82002490850,CLPS03000N,LICEO SCIENT.-LING. E. VITTORINI,1011,SEC II,"VIA PITAGORA S.N.C., 93012, GELA",37.076875,14.2254917
Caltanissetta,ISTITUTO SUPERIORE,CLIS00300X,"I.I.S. ""L. STURZO""",VIA E. ROMAGNOLI 78,93012,GELA,10,CLIS00300X@istruzione.it,933930069,82002650859,CLRH003014,L. STURZO,167,SEC II,"Via Liszt snc, 93012, GELA",37.0797867,14.2409564
Caltanissetta,ISTITUTO SUPERIORE,CLIS00300X,"I.I.S. ""L. STURZO""",VIA E. ROMAGNOLI 78,93012,GELA,10,CLIS00300X@istruzione.it,933930069,82002650859,CLRH003025,L. STURZO CARCERARIO - GELA,22,SEC II,"Casa Circondariale di Gela, Contrada Balate SS117bis, 93012 Gela (CL)",37.0880713,14.2658017
Caltanissetta,ISTITUTO SUPERIORE,CLIS00300X,"I.I.S. ""L. STURZO""",VIA E. ROMAGNOLI 78,93012,GELA,10,CLIS00300X@istruzione.it,933930069,82002650859,CLRH00350C,CORSO SERALE ALBERGH. - GELA,54,SEC II,"Via Liszt snc, 93012, GELA",37.0797867,14.2409564
Caltanissetta,ISTITUTO SUPERIORE,CLIS00300X,"I.I.S. ""L. STURZO""",VIA E. ROMAGNOLI 78,93012,GELA,10,CLIS00300X@istruzione.it,933930069,82002650859,CLTD003027,L. STURZO,241,SEC II,"Via Ettore Romagnoli, 78,93012 Gela (CL)",37.0684248,14.238391
Caltanissetta,ISTITUTO SUPERIORE,CLIS00300X,"I.I.S. ""L. STURZO""",VIA E. ROMAGNOLI 78,93012,GELA,10,CLIS00300X@istruzione.it,933930069,82002650859,CLTD00352L,CORSO SERALE A.F.M. - GELA,29,SEC II,"Via Ettore Romagnoli, 78, 93012 Gela (CL)",37.0684248,14.238391
Caltanissetta,ISTITUTO SUPERIORE,CLIS00900V,"I.I.S. ""A. DI ROCCO""",VIA LEONE XIII 64,93100,CALTANISSETTA,9,CLIS00900V@istruzione.it,934591250,1584930851,CLRA00902X,IP SERVIZI AGRICOLTURA E SVILUPPO RURALE,28,SEC II,"Via Donizetti 2, 93017, SAN CATALDO",37.48242,13.98376
Caltanissetta,ISTITUTO SUPERIORE,CLIS00900V,"I.I.S. ""A. DI ROCCO""",VIA LEONE XIII 64,93100,CALTANISSETTA,9,CLIS00900V@istruzione.it,934591250,1584930851,CLRH009013,IP SERV. L'ENOGASTRON. L'OSP. ALBER,295,SEC II,"Via Leone XIII 64, 93100, CALTANISSETTA",37.4904208,14.0428684
Caltanissetta,ISTITUTO SUPERIORE,CLIS00900V,"I.I.S. ""A. DI ROCCO""",VIA LEONE XIII 64,93100,CALTANISSETTA,9,CLIS00900V@istruzione.it,934591250,1584930851,CLRH00950B,CORSO SERALE ALBERGH. - CALTANISSETTA,92,SEC II,"Via Leone XIII [aule] 64, 93100, CALTANISSETTA",37.4904119,14.0475129
Caltanissetta,ISTITUTO SUPERIORE,CLIS00900V,"I.I.S. ""A. DI ROCCO""",VIA LEONE XIII 64,93100,CALTANISSETTA,9,CLIS00900V@istruzione.it,934591250,1584930851,CLTA00901P,AGRARIA - AGROALIMENTARE - AGROINDUSTRIA,125,SEC II,"Via Leone XIII 64, 93100, CALTANISSETTA",37.4904208,14.0428684
Caltanissetta,ISTITUTO SUPERIORE,CLIS00600B,"I.I.S. ""E. MAJORANA""","VIA PITAGORA, 41",93012,GELA,10,CLIS00600B@istruzione.it,933930464,90012970852,CLRI006013,IST. PROF. INDUSTRIA E ARTIG. E SERVIZI,190,SEC II,"VIALE PAOLO LA ROSA N. 2 C.DA MARCHITELLO, 93012, GELA",37.0810488,14.2186239
Caltanissetta,ISTITUTO SUPERIORE,CLIS00600B,"I.I.S. ""E. MAJORANA""","VIA PITAGORA, 41",93012,GELA,10,CLIS00600B@istruzione.it,933930464,90012970852,CLRI00650B,SERALE M.A.T. - MAJORANA GELA,35,SEC II,"VIALE PAOLO LA ROSA 2 - C.DA MARCHITELLO, 93012, GELA",37.0810488,14.2186239
Caltanissetta,ISTITUTO SUPERIORE,CLIS00600B,"I.I.S. ""E. MAJORANA""","VIA PITAGORA, 41",93012,GELA,10,CLIS00600B@istruzione.it,933930464,90012970852,CLSL00601P,LICEO ARTISTICO E. MAJORANA,144,SEC II,"VIALE PAOLO LA ROSA N. 2 C.DA MARCHITELLO, 93012, GELA",37.0810488,14.2186239
Caltanissetta,ISTITUTO SUPERIORE,CLIS00600B,"I.I.S. ""E. MAJORANA""","VIA PITAGORA, 41",93012,GELA,10,CLIS00600B@istruzione.it,933930464,90012970852,CLTL006014,TRASPORTI E LOGISTICA E. MAJORANA,328,SEC II,"VIA PITAGORA N. 41, 93012, GELA",37.0763103,14.2258236
Caltanissetta,ISTITUTO SUPERIORE,CLIS00600B,"I.I.S. ""E. MAJORANA""","VIA PITAGORA, 41",93012,GELA,10,CLIS00600B@istruzione.it,933930464,90012970852,CLTL00651D,SERALI CAT IPSS NAUTICO - MAJORANA GELA,116,SEC II,"VIA PITAGORA 41, 93012, GELA",37.0763103,14.2258236
Caltanissetta,ISTITUTO SUPERIORE,CLIS016002,"I.I.S. ""G.B. HODIERNA""",CONTRADA PRATO,93014,MUSSOMELI,8,CLIS016002@istruzione.it,934951415,92060600852,CLRI01601N,CAMPOFRANCO,55,SEC II,"VIA PIAVE 99, 93010, CAMPOFRANCO",37.5133271,13.7113097
Caltanissetta,ISTITUTO SUPERIORE,CLIS016002,"I.I.S. ""G.B. HODIERNA""",CONTRADA PRATO,93014,MUSSOMELI,8,CLIS016002@istruzione.it,934951415,92060600852,CLRI01602P,MUSSOMELI,47,SEC II,"CONTRADA PRATO, 93014, MUSSOMELI",37.5759978,13.7519378
Caltanissetta,ISTITUTO SUPERIORE,CLIS016002,"I.I.S. ""G.B. HODIERNA""",CONTRADA PRATO,93014,MUSSOMELI,8,CLIS016002@istruzione.it,934951415,92060600852,CLTD016018,G. B. HODIERNA,308,SEC II,"CONTRADA PRATO, 93014, MUSSOMELI",37.5759978,13.7519378
Caltanissetta,ISTITUTO SUPERIORE,CLIS016002,"I.I.S. ""G.B. HODIERNA""",CONTRADA PRATO,93014,MUSSOMELI,8,CLIS016002@istruzione.it,934951415,92060600852,CLTD01651N,CORSO SERALE A.F.M. - C.A.T. - MUSSOMELI,291,SEC II,"CONTRADA PRATO, 93014, MUSSOMELI",37.5759978,13.7519378
Caltanissetta,IST PROF INDUSTRIA E ARTIGIANATO,CLRI01000N,"IST. PROF. IND. SERV. ""GALILEO GALILEI""","VIA FRA F. GIARRATANA,1",93100,CALTANISSETTA,9,CLRI01000N@istruzione.it,93425449,80003190859,CLRI01000N,IST. PROF. IND. SERV. GALILEO GALILEI,548,SEC II,"Via Fra` Giarratana 1, 93100, CALTANISSETTA",37.4895811,14.0523797
Caltanissetta,IST PROF INDUSTRIA E ARTIGIANATO,CLRI01000N,"IST. PROF. IND. SERV. ""GALILEO GALILEI""","VIA FRA F. GIARRATANA,1",93100,CALTANISSETTA,9,CLRI01000N@istruzione.it,93425449,80003190859,CLRI010503,CORSO SERALE M.A.T. - CALTANISSETTA,84,SEC II,"Via Fra` Giarratana 1, 93100, CALTANISSETTA",37.4895811,14.0523797
Caltanissetta,IST TEC COMMERCIALE E PER GEOMETRI,CLTD090005,"I.T.E.T. ""RAPISARDI-DA VINCI""","VIALE REGINA MARGHERITA, 27",93100,CALTANISSETTA,9,CLTD090005@istruzione.it,93425377,80003710854,CLTD090005,I.T.E.T. RAPISARDI-DA VINCI,624,SEC II,"VIALE REGINA MARGHERITA 27, 93100, CALTANISSETTA",37.4867487,14.0610246
Caltanissetta,IST TEC COMMERCIALE E PER GEOMETRI,CLTD090005,"I.T.E.T. ""RAPISARDI-DA VINCI""","VIALE REGINA MARGHERITA, 27",93100,CALTANISSETTA,9,CLTD090005@istruzione.it,93425377,80003710854,CLTD090016,M. RAPISARDI CARCERARIO - SAN CATALDO,19,SEC II,"PIAZZA MARCONI 1, 93017, SAN CATALDO",37.4873743,13.9877968
Caltanissetta,IST TEC COMMERCIALE E PER GEOMETRI,CLTD090005,"I.T.E.T. ""RAPISARDI-DA VINCI""","VIALE REGINA MARGHERITA, 27",93100,CALTANISSETTA,9,CLTD090005@istruzione.it,93425377,80003710854,CLTD090027,M. RAPISARDI CARCERARIO - CALTANISSETT,46,SEC II,"VIALE REGINA MARGHERITA, 93100, CALTANISSETTA",37.4841709,14.0598508
Caltanissetta,IST TEC COMMERCIALE E PER GEOMETRI,CLTD090005,"I.T.E.T. ""RAPISARDI-DA VINCI""","VIALE REGINA MARGHERITA, 27",93100,CALTANISSETTA,9,CLTD090005@istruzione.it,93425377,80003710854,CLTD09050E,M. RAPISARDI CORSO SERALE - CALTANISS,51,SEC II,"VIALE REGINA MARGHERITA, 93100, CALTANISSETTA",37.4841709,14.0598508
Caltanissetta,ISTITUTO TECNICO INDUSTRIALE,CLTF020005,"I.T.T. ""E. MORSELLI""",VIA PITAGORA,93012,GELA,10,CLTF020005@istruzione.it,933930997,82002330858,CLTF020005,I.T.T. E. MORSELLI,554,SEC II,"Via Pitagora s.n.c., 93012, GELA",37.076875,14.2254917
Caltanissetta,ISTITUTO TECNICO INDUSTRIALE,CLTF020005,"I.T.T. ""E. MORSELLI""",VIA PITAGORA,93012,GELA,10,CLTF020005@istruzione.it,933930997,82002330858,CLTF02050E,CORSO SERALE MECC. - GELA,52,SEC II,"Via Pitagora, 93012 Gela (CL)",37.076875,14.2254917
Catania,ISTITUTO SUPERIORE,CTIS001009,IIS MICHELE AMARI,VIA PADRE AMBROGIO N.1,95014,GIARRE,20,CTIS001009@istruzione.it,956136480,83001130877,CTPC00101L,LICEO CLASSICO E LICEO MUSICALE,735,SEC II,"VIA PADRE AMBROGIO 1, 95014, GIARRE",37.7294598,15.1889206
Catania,ISTITUTO SUPERIORE,CTIS001009,IIS MICHELE AMARI,VIA PADRE AMBROGIO N.1,95014,GIARRE,20,CTIS001009@istruzione.it,956136480,83001130877,CTPC00102N,"LICEO SCIENTIFICO,LINGUISTICO, SC. UMANE",195,SEC II,"VIA VIGNAZZA S.N., 95015, LINGUAGLOSSA",37.8432899,15.1331313
Catania,ISTITUTO SUPERIORE,CTIS00600C,IS ENRICO MEDI,VIA PAPA GIOVANNI PAOLO II,95036,RANDAZZO,21,CTIS00600C@istruzione.it,956136730,83001470877,CTPC00601Q,DON CAVINA,144,SEC II,"PIAZZA S. BENEDETTO12, 95036, RANDAZZO",37.8778059,14.950883
Catania,ISTITUTO SUPERIORE,CTIS00600C,IS ENRICO MEDI,VIA PAPA GIOVANNI PAOLO II,95036,RANDAZZO,21,CTIS00600C@istruzione.it,956136730,83001470877,CTRA00601C,A. M. MAZZEI,63,SEC II,"VIA DEI CADUTI 5, 95036, RANDAZZO",37.8750204,14.9448982
Catania,ISTITUTO SUPERIORE,CTIS00600C,IS ENRICO MEDI,VIA PAPA GIOVANNI PAOLO II,95036,RANDAZZO,21,CTIS00600C@istruzione.it,956136730,83001470877,CTRH00601L,IPSSAR MEDI SEZ. ASS. IISS MEDI RANDAZZO,199,SEC II,"VIA PAPA GIOVANNI PAOLO II, 95136, RANDAZZO",37.8693043,14.9576751
Catania,ISTITUTO SUPERIORE,CTIS00600C,IS ENRICO MEDI,VIA PAPA GIOVANNI PAOLO II,95036,RANDAZZO,21,CTIS00600C@istruzione.it,956136730,83001470877,CTRH006501,SERALE IST PROF PER I SERV. ALBERG. RIST,38,SEC II,"VIA PAPA GIOVANNI PAOLO II, 95136, RANDAZZO",37.8693043,14.9576751
Catania,ISTITUTO SUPERIORE,CTIS00600C,IS ENRICO MEDI,VIA PAPA GIOVANNI PAOLO II,95036,RANDAZZO,21,CTIS00600C@istruzione.it,956136730,83001470877,CTTD00601P,ENRICO MEDI,120,SEC II,"VIA PAPA GIOVANNI PAOLO II, 95036, RANDAZZO",37.8693043,14.9576751
Catania,ISTITUTO SUPERIORE,CTIS00900X,IS VEN. IGNAZIO CAPIZZI,VIA UMBERTO N.279,95034,BRONTE,22,CTIS00900X@istruzione.it,956136100,80011280874,CTPC009017,LICEO CLASSICO E ARTISTICO VEN.I CAPIZZI,294,SEC II,"VIA UMBERTO 279, 95034, BRONTE",37.7867248,14.8331314
Catania,ISTITUTO SUPERIORE,CTIS00900X,IS VEN. IGNAZIO CAPIZZI,VIA UMBERTO N.279,95034,BRONTE,22,CTIS00900X@istruzione.it,956136100,80011280874,CTPS00901A,LICEO SCIENTIFICO VEN.I.CAPIZZI,383,SEC II,"V.LE J.F.KENNEDY, 95034, BRONTE",37.7870005,14.837995
Catania,ISTITUTO SUPERIORE,CTIS00900X,IS VEN. IGNAZIO CAPIZZI,VIA UMBERTO N.279,95034,BRONTE,22,CTIS00900X@istruzione.it,956136100,80011280874,CTRA00901X,IS VEN.IGNAZIO CAPIZZI,58,SEC II,"VIALE DELLA REGIONE 2, 95030, BRONTE",37.7835911,14.8366097
Catania,ISTITUTO SUPERIORE,CTIS00900X,IS VEN. IGNAZIO CAPIZZI,VIA UMBERTO N.279,95034,BRONTE,22,CTIS00900X@istruzione.it,956136100,80011280874,CTRI00901G,I.P.S.I.A. VEN.I.CAPIZZI,95,SEC II,"VIALE DELLA REGIONE N. 2, 95034, BRONTE",37.7835911,14.8366097
Catania,ISTITUTO SUPERIORE,CTIS00900X,IS VEN. IGNAZIO CAPIZZI,VIA UMBERTO N.279,95034,BRONTE,22,CTIS00900X@istruzione.it,956136100,80011280874,CTRI00950X,CORSO SERALE PER ADULTI IPSIA CAPIZZI,0,SEC II,"VIALE DELLA REGIONE 2, 95034, BRONTE",37.7835911,14.8366097
Catania,LICEO CLASSICO,CTPC01000A,LC GIOVANNI VERGA,VIA S. D'ACQUISTO N. 16,95031,ADRANO,22,CTPC01000A@istruzione.it,956136075,80012580876,CTPC01000A,LC GIOVANNI VERGA,905,SEC II,"VIA S. D'ACQUISTO N. 16, 95031, ADRANO",37.66496,14.8399744
Catania,ISTITUTO SUPERIORE,CTIS01200Q,IS RAPISARDI PATERNO',VIA DEGLI STUDI 1,95047,PATERNO',23,CTIS01200Q@istruzione.it,956136650,80012510873,CTPC012013,MARIO RAPISARDI,260,SEC II,"VIA DEGLI STUDI 1, 95047, PATERNO'",37.5698703,14.9030281
Catania,ISTITUTO SUPERIORE,CTIS01200Q,IS RAPISARDI PATERNO',VIA DEGLI STUDI 1,95047,PATERNO',23,CTIS01200Q@istruzione.it,956136650,80012510873,CTPM012017,LICEO DELLE SCIENZE UMANE,221,SEC II,"CONTRADA PONTE BARRIERA, 95038, BIANCAVILLA",37.6439684,14.866487
Catania,ISTITUTO SUPERIORE,CTIS01200Q,IS RAPISARDI PATERNO',VIA DEGLI STUDI 1,95047,PATERNO',23,CTIS01200Q@istruzione.it,956136650,80012510873,CTTF012018,ISTITUTO TECNICO INDUSTRIALE - IND. CHIM,31,SEC II,"Via G. BATTISTA VICO 1, 95033, BIANCAVILLA",37.6412061,14.8735789
Catania,LICEO CLASSICO,CTPC040006,"LC ""MARIO CUTELLI E CARMELO SALANITRO""",VIA FIRENZE 202,95128,CATANIA,14,CTPC040006@istruzione.it,956136280,80012480879,CTPC040006,LC MARIO CUTELLI E CARMELO SALANITRO,1066,SEC II,"VIA FIRENZE 202, 95128, CATANIA",37.5154943,15.0883413
Catania,ISTITUTO SUPERIORE,CTIS044007,GULLI E PENNISI,VIA MARIO ARCIDIACONO,95024,ACIREALE,19,CTIS044007@istruzione.it,956136040,90055030879,CTPC04401E,LICEO CLASSICO GULLI E PENNISI,499,SEC II,"VIA MARIO ARCIDIACONO, 95024, ACIREALE",37.6078154,15.1666967
Catania,ISTITUTO SUPERIORE,CTIS044007,GULLI E PENNISI,VIA MARIO ARCIDIACONO,95024,ACIREALE,19,CTIS044007@istruzione.it,956136040,90055030879,CTPS04401N,LICEO SCIENTIFICO ACIBONACCORSI,205,SEC II,"VIA LAVINA, 95030, ACI BONACCORSI",37.6025735,15.1085224
Catania,ISTITUTO SUPERIORE,CTIS04700P,I.S. SECUSIO CALTAGIRONE,VIA MADONNA DELLA VIA 5/A,95041,CALTAGIRONE,15,CTIS04700P@istruzione.it,956136170,91028670874,CTPC047012,LICEO CLASSICO E LINGUISTICO SECUSIO,628,SEC II,"VIA MADONNA DELLA VIA 5/A, 95041, CALTAGIRONE",37.2288538,14.5218793
Catania,ISTITUTO SUPERIORE,CTIS04700P,I.S. SECUSIO CALTAGIRONE,VIA MADONNA DELLA VIA 5/A,95041,CALTAGIRONE,15,CTIS04700P@istruzione.it,956136170,91028670874,CTSD04701G,IA ISTITUTO D'ARTE CALTAGIRONE,105,SEC II,"VIA EX MATRICE N. 153, 95041, CALTAGIRONE",37.2406668,14.5124092
Catania,ISTITUTO SUPERIORE,CTIS04700P,I.S. SECUSIO CALTAGIRONE,VIA MADONNA DELLA VIA 5/A,95041,CALTAGIRONE,15,CTIS04700P@istruzione.it,956136170,91028670874,CTSD04702L,CASA CIRCONDARIALE DI CALTAGIRONE,66,SEC II,"C/O CASA CIRCONDARIALE DI CALTAGIRONE, 95041, CALTAGIRONE",37.2371653,14.5133945
Catania,LICEO CLASSICO,CTPC070002,LC SPEDALIERI,PIAZZA ANNIBALE RICCO' S.N.,95124,CATANIA,12,CTPC070002@istruzione.it,956136290,80009390875,CTPC070002,LC SPEDALIERI,873,SEC II,"PIAZZA ANNIBALE RICCO' S.N., 95124, CATANIA",37.5052539,15.0800198
Catania,ISTITUTO MAGISTRALE,CTPM01000E,LICEO STATALE FRANCESCO DE SANCTIS,"VIA FOGAZZARO,18",95047,PATERNO',23,CTPM01000E@istruzione.it,956136690,80008970875,CTPM01000E,LICEO STATALE FRANCESCO DE SANCTIS,1001,SEC II,"VIA FOGAZZARO18, 95047, PATERNO'",37.5721908,14.9034029
Catania,ISTITUTO MAGISTRALE,CTPM020005,"LICEO STATALE ""G. TURRISI COLONNA""","VIA FABIO FILZI, 24",95124,CATANIA,12,CTPM020005@istruzione.it,956136300,80009130875,CTPM020005,LICEO STATALE G. TURRISI COLONNA,1283,SEC II,"VIA FABIO FILZI 24, 95124, CATANIA",37.5102205,15.0750715
Catania,ISTITUTO MAGISTRALE,CTPM03000Q,LICEO STATALE LOMBARDO RADICE,VIA IMPERIA 21,95128,CATANIA,14,CTPM03000Q@istruzione.it,956136310,80010640870,CTPM03000Q,LICEO STATALE LOMBARDO RADICE,1532,SEC II,"VIA IMPERIA 21, 95128, CATANIA",37.5234302,15.0934603
Catania,ISTITUTO MAGISTRALE,CTPM03000Q,LICEO STATALE LOMBARDO RADICE,VIA IMPERIA 21,95128,CATANIA,14,CTPM03000Q@istruzione.it,956136310,80010640870,CTPM03001R,LICEO STATALE SEZ. DIST. LOMBARDO RADICE,312,SEC II,"VIA ZANGRI' 6, 95030, GRAVINA DI CATANIA",37.5383946,15.0786479
Catania,ISTITUTO MAGISTRALE,CTPM04000A,IM REGINA ELENA,"VIA COLLEGIO PENNISI, 13",95024,ACIREALE,19,CTPM04000A@istruzione.it,956136050,81002530871,CTPM04000A,IM REGINA ELENA,975,SEC II,"VIA COLLEGIO PENNISI 13, 95024, ACIREALE",37.6105014,15.1597319
Catania,LICEO SCIENTIFICO,CTPS01000D,LS ARCHIMEDE,"VIA L. ARIOSTO, N.37",95024,ACIREALE,19,CTPS01000D@istruzione.it,956136062,81002810877,CTPS01000D,LS ARCHIMEDE,1492,SEC II,"VIA L. ARIOSTO N.37, 95024, ACIREALE",37.6163501,15.1541287
Catania,ISTITUTO SUPERIORE,CTIS016003,FRANCESCO REDI,VIA LUCANIA 1,95047,PATERNO',23,CTIS016003@istruzione.it,956136679,93002880875,CTPS01601D,SCIENTIFICO BELPASSO,175,SEC II,"""ANTONINO RUSSO GIUSTI"", 95032, BELPASSO",37.5898235,14.9769402
Catania,ISTITUTO SUPERIORE,CTIS016003,FRANCESCO REDI,VIA LUCANIA 1,95047,PATERNO',23,CTIS016003@istruzione.it,956136679,93002880875,CTRA016013,SANTO ASERO,172,SEC II,"VIA LUCANIA 1, 95047, PATERNO'",37.5588884,14.9109785
Catania,ISTITUTO SUPERIORE,CTIS016003,FRANCESCO REDI,VIA LUCANIA 1,95047,PATERNO',23,CTIS016003@istruzione.it,956136679,93002880875,CTRA01650B,SANTO ASERO SERALE,109,SEC II,"VIA LUCANIA 1, 95047, PATERNO'",37.5588884,14.9109785
Catania,ISTITUTO SUPERIORE,CTIS016003,FRANCESCO REDI,VIA LUCANIA 1,95047,PATERNO',23,CTIS016003@istruzione.it,956136679,93002880875,CTRI01601P,EFESTO,95,SEC II,"VIA GIULIO VERNE N. 24, 95033, BIANCAVILLA",37.6470104,14.8612093
Catania,ISTITUTO SUPERIORE,CTIS016003,FRANCESCO REDI,VIA LUCANIA 1,95047,PATERNO',23,CTIS016003@istruzione.it,956136679,93002880875,CTTF01601G,GALILEO FERRARIS,477,SEC II,"VIA LEONARDO SCIASCIA 3, 95032, BELPASSO",37.5924572,14.9758051
Catania,ISTITUTO SUPERIORE,CTIS01700V,IS G. B. VACCARINI,"VIA ORCHIDEA, 9",95123,CATANIA,12,CTIS01700V@istruzione.it,956136235,80009410871,CTPS017019,VACCARINI,811,SEC II,"VIA ORCHIDEA N 9, 95123, CATANIA",37.5146226,15.0769296
Catania,ISTITUTO SUPERIORE,CTIS01700V,IS G. B. VACCARINI,"VIA ORCHIDEA, 9",95123,CATANIA,12,CTIS01700V@istruzione.it,956136235,80009410871,CTTF01701B,VACCARINI,169,SEC II,"VIA ORCHIDEA 9, 95123, CATANIA",37.5146226,15.0769296
Catania,ISTITUTO SUPERIORE,CTIS01700V,IS G. B. VACCARINI,"VIA ORCHIDEA, 9",95123,CATANIA,12,CTIS01700V@istruzione.it,956136235,80009410871,CTTL01701G,G. B. VACCARINI,207,SEC II,"VIA ORCHIDEA 9, 95123, CATANIA",37.5146226,15.0769296
Catania,ISTITUTO SUPERIORE,CTIS01700V,IS G. B. VACCARINI,"VIA ORCHIDEA, 9",95123,CATANIA,12,CTIS01700V@istruzione.it,956136235,80009410871,CTTL017511,G.B. VACCARINI - SERALE,0,SEC II,"VIA ORCHIDEA, 95123, CATANIA",37.5151144,15.0765412
Catania,LICEO SCIENTIFICO,CTPS020004,LICEO STATALE E. BOGGIO LERA,VIA VITTORIO EMANUELE 346,95124,CATANIA,66,CTPS020004@istruzione.it,956136325,80011090877,CTPS020004,LICEO STATALE E. BOGGIO LERA,1260,SEC II,"VIA VITTORIO EMANUELE 346, 95124, CATANIA",37.5021225,15.08068
Catania,ISTITUTO SUPERIORE,CTIS02600N,"I.I.S.LICEO ""C. MARCHESI"" CL./SC.",VIA CASE NUOVE 35/37,95030,MASCALUCIA,18,CTIS02600N@istruzione.it,957272517,93151730871,CTPS026014,I.I.S.LICEO C.MARCHESI CL./SC.,1346,SEC II,"VIA CASE NUOVE S.N., 95030, MASCALUCIA",37.5788057,15.0534169
Catania,ISTITUTO SUPERIORE,CTIS02600N,"I.I.S.LICEO ""C. MARCHESI"" CL./SC.",VIA CASE NUOVE 35/37,95030,MASCALUCIA,18,CTIS02600N@istruzione.it,957272517,93151730871,CTTF026016,ITI - MASCALUCIA,318,SEC II,"VIA CASE NUOVE S.N., 95030, MASCALUCIA",37.5788057,15.0534169
Catania,LICEO SCIENTIFICO,CTPS03000P,LS FERMI,"CORSO DEL POPOLO, N.1",95047,PATERNO',23,CTPS03000P@istruzione.it,9561367000,80011360874,CTPS03000P,LS FERMI,870,SEC II,"CORSO DEL POPOLO N.1, 95047, PATERNO'",37.5739373,14.9013429
Catania,LICEO SCIENTIFICO,CTPS040009,LS GALILEO GALILEI,VIA VESCOVO MAURIZIO 73 - 75,95126,CATANIA,14,CTPS040009@istruzione.it,956136345,80010300871,CTPS040009,LS GALILEO GALILEI,1907,SEC II,"VIA VESCOVO MAURIZIO 73 - 75, 95126, CATANIA",37.5352859,15.1057962
Catania,LICEO SCIENTIFICO,CTPS040009,LS GALILEO GALILEI,VIA VESCOVO MAURIZIO 73 - 75,95126,CATANIA,14,CTPS040009@istruzione.it,956136345,80010300871,CTPS04001A,L.S. GALILEI SEZ. OSPEDALIERA,5,SEC II,"OSP. CANNIZZAPO POLICLINICO E GARIBALDI, 95100, CATANIA",37.5134761,15.0973429
Catania,ISTITUTO SUPERIORE,CTIS04200G,I.S. RAMACCA - PALAGONIA,"VIA FASTUCHERIA, 48",95040,RAMACCA,17,CTIS04200G@istruzione.it,95653329,91019770873,CTPS042012,LICEO RAMACCA,142,SEC II,"VIA FASTUCHERIA 48, 95040, RAMACCA",37.3845635,14.6877539
Catania,ISTITUTO SUPERIORE,CTIS04200G,I.S. RAMACCA - PALAGONIA,"VIA FASTUCHERIA, 48",95040,RAMACCA,17,CTIS04200G@istruzione.it,95653329,91019770873,CTPS042023,L.SCIENTIFICO (SEZ.ASS.I.I.S. PALAGONIA),118,SEC II,"VIA CESARE BATTISTI, 95046, PALAGONIA",37.3305952,14.7457654
Catania,ISTITUTO SUPERIORE,CTIS04200G,I.S. RAMACCA - PALAGONIA,"VIA FASTUCHERIA, 48",95040,RAMACCA,17,CTIS04200G@istruzione.it,95653329,91019770873,CTTD04201T,I.T.COMMERCIALE(SEZ.ASS.I.I.S.PALAGONIA),91,SEC II,"VIA C. BATTISTI S.N., 95046, PALAGONIA",37.3305952,14.7457654
Catania,ISTITUTO SUPERIORE,CTIS04200G,I.S. RAMACCA - PALAGONIA,"VIA FASTUCHERIA, 48",95040,RAMACCA,17,CTIS04200G@istruzione.it,95653329,91019770873,CTTD04202V,IGEA RAMACCA,146,SEC II,"VIA FASTUCHERIA 48, 95040, RAMACCA",37.3845635,14.6877539
Catania,ISTITUTO SUPERIORE,CTIS04200G,I.S. RAMACCA - PALAGONIA,"VIA FASTUCHERIA, 48",95040,RAMACCA,17,CTIS04200G@istruzione.it,95653329,91019770873,CTTD042506,IT COMM. SERALE PALAGONIA,80,SEC II,"VIA C. BATTISTI S.N., 95046, PALAGONIA",37.3305952,14.7457654
Catania,ISTITUTO SUPERIORE,CTIS04200G,I.S. RAMACCA - PALAGONIA,"VIA FASTUCHERIA, 48",95040,RAMACCA,17,CTIS04200G@istruzione.it,95653329,91019770873,CTTF042014,ITI RAMACCA,192,SEC II,"VIA FASTUCHERIA 48, 95040, RAMACCA",37.3845635,14.6877539
Catania,ISTITUTO SUPERIORE,CTIS04900A,"I.S. ""MAJORANA-ARCOLEO""","VIA PIERSANTI MATTARELLA, 21",95041,CALTAGIRONE,15,CTIS04900A@istruzione.it,956136180,91028680873,CTPS04901R,LICEO SCIENTIFICO STATALE E. MAJORANA,1043,SEC II,"VIA PIERSANTI MATTARELLA 21, 95041, CALTAGIRONE",37.2171893,14.5112765
Catania,ISTITUTO SUPERIORE,CTIS04900A,"I.S. ""MAJORANA-ARCOLEO""","VIA PIERSANTI MATTARELLA, 21",95041,CALTAGIRONE,15,CTIS04900A@istruzione.it,956136180,91028680873,CTTD04901L,ITC G. ARCOLEO - CALTAGIRONE,111,SEC II,"VIALE AUTONOMIA N.6, 95041, CALTAGIRONE",37.2231848,14.5214704
Catania,ISTITUTO SUPERIORE,CTIS04900A,"I.S. ""MAJORANA-ARCOLEO""","VIA PIERSANTI MATTARELLA, 21",95041,CALTAGIRONE,15,CTIS04900A@istruzione.it,956136180,91028680873,CTTD04902N,I.T.C. G. ARCOLEO SEZ. DI GRAMMICHELE,91,SEC II,"Via L. EINAUDI Ampliamento SNC, 95042, GRAMMICHELE",37.2126529,14.6246096
Catania,ISTITUTO SUPERIORE,CTIS04900A,"I.S. ""MAJORANA-ARCOLEO""","VIA PIERSANTI MATTARELLA, 21",95041,CALTAGIRONE,15,CTIS04900A@istruzione.it,956136180,91028680873,CTTD049512,I.T.C. SERALE CALTAGIORNE,0,SEC II,"VIALE AUTONOMIA 6, 95041, CALTAGIRONE",37.2231848,14.5214704
Catania,ISTITUTO SUPERIORE,CTIS053002,IIS LEONARDO,VIA VENETO 91,95014,GIARRE,20,CTIS053002@istruzione.it,956136865,92038480874,CTPS05301C,LICEO SCIENTIFICO LEONARDO,1328,SEC II,"VIA VENETO 91, 95014, GIARRE",37.7217632,15.1931218
Catania,ISTITUTO SUPERIORE,CTIS053002,IIS LEONARDO,VIA VENETO 91,95014,GIARRE,20,CTIS053002@istruzione.it,956136865,92038480874,CTRA053012,IPSAA A. M. MAZZEI,195,SEC II,"VIA PRINCIPE DI PIEMONTE 92, 95014, GIARRE",37.7175726,15.1707646
Catania,ISTITUTO SUPERIORE,CTIS053002,IIS LEONARDO,VIA VENETO 91,95014,GIARRE,20,CTIS053002@istruzione.it,956136865,92038480874,CTRA05351B,SERALE IST PROF PER L'AGR. E L'AMBIENT,41,SEC II,"VIA PRINCIPE DI PIEMONTE 92, 95014, GIARRE",37.7175726,15.1707646
Catania,ISTITUTO SUPERIORE,CTIS053002,IIS LEONARDO,VIA VENETO 91,95014,GIARRE,20,CTIS053002@istruzione.it,956136865,92038480874,CTRI053513,GIARRE,0,SEC II,"VIALE LIBERTA' 151, 95014, GIARRE",37.7259607,15.1954833
Catania,LICEO SCIENTIFICO,CTPS06000E,LICEO SCIENT/LINGUIST UMBERTO DI SAVOIA,"VIA CHISARI, 8",95123,CATANIA,12,CTPS06000E@istruzione.it,956136360,80009250871,CTPS06000E,LICEO SCIENT/LINGUIST UMBERTO DI SAVOIA,1679,SEC II,"VIA CHISARI 8, 95123, CATANIA",37.516479,15.0723483
Catania,LICEO SCIENTIFICO,CTPS10000Q,LICEO SC. MAJORANA S.G.LA PUNTA,VIA G. MOTTA 87,95037,SAN GIOVANNI LA PUNTA,18,CTPS10000Q@istruzione.it,956136760,90001840876,CTPS10000Q,LICEO SC. MAJORANA S.G.LA PUNTA,1283,SEC II,"VIA G. MOTTA 87, 95037, SAN GIOVANNI LA PUNTA",37.5752892,15.0846666
Catania,LICEO SCIENTIFICO,CTPS170002,I.S. ETTORE MAJORANA LICEO SCIENTIFICO,VIA LUIGI CAPUANA 36,95048,SCORDIA,17,CTPS170002@istruzione.it,956136790,93238370873,CTPS170002,I.S. ETTORE MAJORANA LICEO SCIENTIFICO,885,SEC II,"VIA LUIGI CAPUANA 36, 95048, SCORDIA",37.2950303,14.8377054
Catania,ISTITUTO SUPERIORE,CTIS01100X,IISS BENEDETTO RADICE,"VIA SARAJEVO,1",95034,BRONTE,22,CTIS01100X@istruzione.it,956136120,80021890878,CTRA01101X,ADRANO (S.C. ISTITUTO SUPERIORE BRONTE),50,SEC II,"VIA TRAPANI 52, 95031, ADRANO",37.663807,14.8249747
Catania,ISTITUTO SUPERIORE,CTIS01100X,IISS BENEDETTO RADICE,"VIA SARAJEVO,1",95034,BRONTE,22,CTIS01100X@istruzione.it,956136120,80021890878,CTRA011508,SERALE IST.PROF.LE AGRIC. E SVILUP. RUR,0,SEC II,"VIA TRAPANI 52, 95031, ADRANO",37.663807,14.8249747
Catania,ISTITUTO SUPERIORE,CTIS01100X,IISS BENEDETTO RADICE,"VIA SARAJEVO,1",95034,BRONTE,22,CTIS01100X@istruzione.it,956136120,80021890878,CTTD011016,BENEDETTO RADICE,619,SEC II,"VIA SARAJEVO1, 95034, BRONTE",37.783756,14.826596
Catania,ISTITUTO SUPERIORE,CTIS01100X,IISS BENEDETTO RADICE,"VIA SARAJEVO,1",95034,BRONTE,22,CTIS01100X@istruzione.it,956136120,80021890878,CTTD01151G,BENEDETTO RADICE - SERALE,37,SEC II,"VIA SELVAGGI S.N., 95034, BRONTE",37.7892926,14.8456966
Catania,ISTITUTO SUPERIORE,CTIS03800X,I.I.S. FERMI EREDIA,VIA PASSO GRAVINA 197,95125,CATANIA,12,CTIS03800X@istruzione.it,956136400,93190600879,CTRA03801X,P.DEODATO - PROF. ALBERGHIERO E AGRIC.,248,SEC II,"VIA DEL BOSCO 43, 95125, CATANIA",37.5290166,15.0780639
Catania,ISTITUTO SUPERIORE,CTIS03800X,I.I.S. FERMI EREDIA,VIA PASSO GRAVINA 197,95125,CATANIA,12,CTIS03800X@istruzione.it,956136400,93190600879,CTRI03801G,IPSIA E.FERMI,331,SEC II,"VIA PASSO GRAVINA 197, 95125, CATANIA",37.5301266,15.0767366
Catania,ISTITUTO SUPERIORE,CTIS03800X,I.I.S. FERMI EREDIA,VIA PASSO GRAVINA 197,95125,CATANIA,12,CTIS03800X@istruzione.it,956136400,93190600879,CTTA03801Q,F. EREDIA,95,SEC II,"VIA DEL BOSCO 43, 95125, CATANIA",37.5290166,15.0780639
Catania,ISTITUTO SUPERIORE,CTIS03800X,I.I.S. FERMI EREDIA,VIA PASSO GRAVINA 197,95125,CATANIA,12,CTIS03800X@istruzione.it,956136400,93190600879,CTTA038504,F.EREDIA CORSO SERALE,43,SEC II,"VIA DEL BOSCO N.43, 95125, CATANIA",37.5290166,15.0780639
Catania,ISTITUTO SUPERIORE,CTIS01300G,I.S. ITN-ITG-IPS RIPOSTO,"VIA PIO LA TORRE, 1",95018,RIPOSTO,20,CTIS01300G@istruzione.it,956136745,92015900878,CTRC01301E,A.OLIVETTI,15,SEC II,"Via pio la torre 1, 95018, RIPOSTO",37.7283062,15.2006592
Catania,ISTITUTO SUPERIORE,CTIS01300G,I.S. ITN-ITG-IPS RIPOSTO,"VIA PIO LA TORRE, 1",95018,RIPOSTO,20,CTIS01300G@istruzione.it,956136745,92015900878,CTRC01350V,SERALE IST PROF PER I SER COMM E TURIS,35,SEC II,"Via pio la torre 1, 95018, RIPOSTO",37.7283062,15.2006592
Catania,ISTITUTO SUPERIORE,CTIS01300G,I.S. ITN-ITG-IPS RIPOSTO,"VIA PIO LA TORRE, 1",95018,RIPOSTO,20,CTIS01300G@istruzione.it,956136745,92015900878,CTTD01301T,E. PANTANO,102,SEC II,"Via ROMA 66, 95018, RIPOSTO",37.7289287,15.1986936
Catania,ISTITUTO SUPERIORE,CTIS01300G,I.S. ITN-ITG-IPS RIPOSTO,"VIA PIO LA TORRE, 1",95018,RIPOSTO,20,CTIS01300G@istruzione.it,956136745,92015900878,CTTD013517,SERALE ISTITUTO TECNICO COMMERCIALE,16,SEC II,"Via Roma 66, 95018 Riposto (CT)",37.7289287,15.1986936
Catania,ISTITUTO SUPERIORE,CTIS01300G,I.S. ITN-ITG-IPS RIPOSTO,"VIA PIO LA TORRE, 1",95018,RIPOSTO,20,CTIS01300G@istruzione.it,956136745,92015900878,CTTH01301G,LUIGI RIZZO - NAPOLEONE COLAJANNI,268,SEC II,"Via CAFIERO 6, 95018, RIPOSTO",37.7311507,15.2054549
Catania,ISTITUTO SUPERIORE,CTIS03400L,I.S. DE FELICE GIUFFRIDA - OLIVETTI,PIAZZA ROMA 4,95125,CATANIA,14,CTIS03400L@istruzione.it,956136270,93030290873,CTRC03401G,IPS A. OLIVETTI,359,SEC II,"VIA ETNEA N. 732, 95125, CATANIA",37.5243011,15.0822592
Catania,ISTITUTO SUPERIORE,CTIS03400L,I.S. DE FELICE GIUFFRIDA - OLIVETTI,PIAZZA ROMA 4,95125,CATANIA,14,CTIS03400L@istruzione.it,956136270,93030290873,CTTD03401V,ITC DE FELICE GIUFFRIDA,402,SEC II,"PIAZZA ROMA 4, 95125, CATANIA",37.5136551,15.0827625
Catania,ISTITUTO SUPERIORE,CTIS04300B,MARCONI-MANGANO,"VIA VESCOVO MAURIZIO,82",95126,CATANIA,14,CTIS04300B@istruzione.it,956136460,93198050879,CTRF043014,IPSS L. MANGANO,524,SEC II,"VIA E. BESANA 12/C, 95121, CATANIA",37.4977746,15.0675116
Catania,ISTITUTO SUPERIORE,CTIS04300B,MARCONI-MANGANO,"VIA VESCOVO MAURIZIO,82",95126,CATANIA,14,CTIS04300B@istruzione.it,956136460,93198050879,CTRF04350C,ISTITUTO PROF.LE MANGANO CORSO SERALE,111,SEC II,"VIA BESANA 12 C, 95121, CATANIA",37.4977746,15.0675116
Catania,ISTITUTO SUPERIORE,CTIS04300B,MARCONI-MANGANO,"VIA VESCOVO MAURIZIO,82",95126,CATANIA,14,CTIS04300B@istruzione.it,956136460,93198050879,CTTF04301X,ITI G.MARCONI,791,SEC II,"VIA VESCOVO MAURIZIO82, 95126, CATANIA",37.5352138,15.1048919
Catania,ISTITUTO SUPERIORE,CTIS04300B,MARCONI-MANGANO,"VIA VESCOVO MAURIZIO,82",95126,CATANIA,14,CTIS04300B@istruzione.it,956136460,93198050879,CTTF043508,CORSO SERALE ISTITUTO TECNICO INDUSTR.,125,SEC II,"VIA VESCOVO MAURIZIO 82, 95126, CATANIA",37.5352138,15.1048919
Catania,ISTITUTO SUPERIORE,CTIS00400R,IIS CUCUZZA - EUCLIDE,VIA MARIO SCELBA N. 5,95041,CALTAGIRONE,15,CTIS00400R@istruzione.it,93325598,91013680870,CTRH004011,CUCUZZA-EUCLIDE SEDE IPSSAR,255,SEC II,"VIA ALDO MORO S.N, 95040, SAN MICHELE DI GANZARIA",37.2795094,14.4243972
Catania,ISTITUTO SUPERIORE,CTIS00400R,IIS CUCUZZA - EUCLIDE,VIA MARIO SCELBA N. 5,95041,CALTAGIRONE,15,CTIS00400R@istruzione.it,93325598,91013680870,CTRH004022,CASA CIRCONDARIALE IPSALB CUCUZZA EUCLID,117,SEC II,"CASA CIRCONDARIALE CALTAGIRONE, 95041, CALTAGIRONE",37.189889,14.4923351
Catania,ISTITUTO SUPERIORE,CTIS00400R,IIS CUCUZZA - EUCLIDE,VIA MARIO SCELBA N. 5,95041,CALTAGIRONE,15,CTIS00400R@istruzione.it,93325598,91013680870,CTTA00401L,CUCUZZA-EUCLIDE - SEZ. ITA,154,SEC II,"VIA DELLE BALATAZZE32, 95041, CALTAGIRONE",37.2107677,14.519142
Catania,ISTITUTO SUPERIORE,CTIS00400R,IIS CUCUZZA - EUCLIDE,VIA MARIO SCELBA N. 5,95041,CALTAGIRONE,15,CTIS00400R@istruzione.it,93325598,91013680870,CTTA004501,CAT- ITA- IPSSEOA SERALE,106,SEC II,"VIA MARIO SCELBA5, 95041, CALTAGIRONE",37.2086917,14.5126907
Catania,ISTITUTO SUPERIORE,CTIS00400R,IIS CUCUZZA - EUCLIDE,VIA MARIO SCELBA N. 5,95041,CALTAGIRONE,15,CTIS00400R@istruzione.it,93325598,91013680870,CTTF004019,CUCUZZA-EUCLIDE - SEZ. ITI,388,SEC II,"VIA MARIO SCELBA N.1, 95041, CALTAGIRONE",37.2113659,14.5116916
Catania,IST PROF PER I SERVIZI ALBERGHIERI E RISTORAZIONE,CTRH010007,IPSSAR GIOVANNI FALCONE,VIA VENETO 4,95014,GIARRE,20,CTRH010007@istruzione.it,956136515,83001610878,CTRH010007,IPSSAR GIOVANNI FALCONE,753,SEC II,"VIA VENETO 4, 95014, GIARRE",37.7216848,15.1903867
Catania,IST PROF PER I SERVIZI ALBERGHIERI E RISTORAZIONE,CTRH010007,IPSSAR GIOVANNI FALCONE,VIA VENETO 4,95014,GIARRE,20,CTRH010007@istruzione.it,956136515,83001610878,CTRH01004B,I.P.S.S.A.R. MANIACE SEDE ASS.,90,SEC II,"CORSO CAVALLARO 7, 95034, MANIACE",37.8741563,14.8015673
Catania,IST PROF PER I SERVIZI ALBERGHIERI E RISTORAZIONE,CTRH010007,IPSSAR GIOVANNI FALCONE,VIA VENETO 4,95014,GIARRE,20,CTRH010007@istruzione.it,956136515,83001610878,CTRH01050L,IPSSAR GIOVANNI FALCONE SERALE,201,SEC II,"Non Disponibile, Non Disponibile, GIARRE",37.7269851,15.1842151
Catania,IST PROF PER I SERVIZI ALBERGHIERI E RISTORAZIONE,CTRH010007,IPSSAR GIOVANNI FALCONE,VIA VENETO 4,95014,GIARRE,20,CTRH010007@istruzione.it,956136515,83001610878,CTRH01051N,GIOVANNI FALCONE CORSO SERALE,63,SEC II,"VIALE DELLA REGIONE 2, 95030, MANIACE",37.8839136,14.7981418
Catania,ISTITUTO SUPERIORE,CTIS024002,"I.I.S. ""C. A. DALLA CHIESA""",VIA SANTA MARIA DI GESU' S.N.,95041,CALTAGIRONE,15,CTIS024002@istruzione.it,956136155,82002520870,CTRH024016,SEDE COORDINATA IPSEOA,92,SEC II,"VIA C. LUIGI GUZZANTI, 95044, MINEO",37.2650723,14.6900091
Catania,ISTITUTO SUPERIORE,CTIS024002,"I.I.S. ""C. A. DALLA CHIESA""",VIA SANTA MARIA DI GESU' S.N.,95041,CALTAGIRONE,15,CTIS024002@istruzione.it,956136155,82002520870,CTRI02401N,I.P.S.I.A C. A. DALLA CHIESA,182,SEC II,"VIA SANTA MARIA DI GESU' S.N., 95041, CALTAGIRONE",37.2256595,14.5195241
Catania,ISTITUTO SUPERIORE,CTIS024002,"I.I.S. ""C. A. DALLA CHIESA""",VIA SANTA MARIA DI GESU' S.N.,95041,CALTAGIRONE,15,CTIS024002@istruzione.it,956136155,82002520870,CTRI02402P,CASA CIRCONDARIALE,120,SEC II,"CASA CIRCONDARIALE CALTAGIRONE, 95041, CALTAGIRONE",37.189889,14.4923351
Catania,ISTITUTO SUPERIORE,CTIS024002,"I.I.S. ""C. A. DALLA CHIESA""",VIA SANTA MARIA DI GESU' S.N.,95041,CALTAGIRONE,15,CTIS024002@istruzione.it,956136155,82002520870,CTRI024502,I.P.S.I.A C. A. DALLA CHIESA,167,SEC II,"VIA SANTA MARIA DI GESU' S.N., 95041, CALTAGIRONE",37.2256595,14.5195241
Catania,IST PROF PER I SERVIZI ALBERGHIERI E RISTORAZIONE,CTRH03000C,I.P.S.S.E.O.A. KAROL WOJTYLA CATANIA,"VIA GIOVANNI BATTISTA DE LA SALLE, 12",95125,CATANIA,66,CTRH03000C@istruzione.it,956132060,93105070879,CTRH03000C,I.P.S.S.E.O.A. KAROL WOJTYLA CATANIA,1068,SEC II,"VIA GIOVANNI BATTISTA DE LA SALLE 12, 95125, CATANIA",37.5325369,15.0919109
Catania,IST PROF PER I SERVIZI ALBERGHIERI E RISTORAZIONE,CTRH03000C,I.P.S.S.E.O.A. KAROL WOJTYLA CATANIA,"VIA GIOVANNI BATTISTA DE LA SALLE, 12",95125,CATANIA,66,CTRH03000C@istruzione.it,956132060,93105070879,CTRH03005N,CASA CIRCONDARIALE DI CATANIA-BICOCCA,70,SEC II,"C/O CASA CIRCONDARIALE DI CATANIA-BICOCCA, 95121, CATANIA",37.457799,15.0279667
Catania,IST PROF PER I SERVIZI ALBERGHIERI E RISTORAZIONE,CTRH03000C,I.P.S.S.E.O.A. KAROL WOJTYLA CATANIA,"VIA GIOVANNI BATTISTA DE LA SALLE, 12",95125,CATANIA,66,CTRH03000C@istruzione.it,956132060,93105070879,CTRH03050T,I.P.S.S.E.O.A. KAROL WOJTYLA CATANIA,180,SEC II,"VIA GIOVANNI BATTISTA DE LA SALLE 12, 95125, CATANIA",37.5325369,15.0919109
Catania,IST PROF PER I SERVIZI ALBERGHIERI E RISTORAZIONE,CTRH05000N,ROCCO CHINNICI,"F.LLI GEMMELLARO, 86",95030,NICOLOSI,18,CTRH05000N@istruzione.it,956136609,93128180879,CTRH05000N,ROCCO CHINNICI,583,SEC II,"F.LLI GEMMELLARO 86, 95030, NICOLOSI",37.6190138,15.0286199
Catania,IST PROF PER I SERVIZI ALBERGHIERI E RISTORAZIONE,CTRH05000N,ROCCO CHINNICI,"F.LLI GEMMELLARO, 86",95030,NICOLOSI,18,CTRH05000N@istruzione.it,956136609,93128180879,CTRH05001P,SEDE COORDINATA DELL'IPSSAT DI NICOLOSI,409,SEC II,"VIA PRINCIPESSA MAFALDA, 95038, SANTA MARIA DI LICODIA",37.6152041,14.8919915
Catania,IST PROF PER I SERVIZI ALBERGHIERI E RISTORAZIONE,CTRH05000N,ROCCO CHINNICI,"F.LLI GEMMELLARO, 86",95030,NICOLOSI,18,CTRH05000N@istruzione.it,956136609,93128180879,CTRH050503,ROCCO CHINNICI,81,SEC II,"F.LLI GEMMELLARO 86, 95030, NICOLOSI",37.6190138,15.0286199
Catania,ISTITUTO SUPERIORE,CTIS03300R,I.S. G. FERRARIS,VIA TRAPANI N.4,95024,ACIREALE,19,CTIS03300R@istruzione.it,956136030,81001950872,CTRI03301C,IPSIA ORA I.S. MAJORANA-MEUCCI,149,SEC II,"VIA GALVANI N.05, 95024, ACIREALE",37.6069881,15.1589363
Catania,ISTITUTO SUPERIORE,CTIS03300R,I.S. G. FERRARIS,VIA TRAPANI N.4,95024,ACIREALE,19,CTIS03300R@istruzione.it,956136030,81001950872,CTTF033019,ITI G. FERRARIS,1015,SEC II,"VIA TRAPANI N.4, 95024, ACIREALE",37.6257689,15.1659222
Catania,ISTITUTO SUPERIORE,CTIS03300R,I.S. G. FERRARIS,VIA TRAPANI N.4,95024,ACIREALE,19,CTIS03300R@istruzione.it,956136030,81001950872,CTTF03350N,GALILEO FERRARIS CORSO SERALE,0,SEC II,"Non Disponibile, Non Disponibile, ACIREALE",37.6078154,15.1666967
Catania,ISTITUTO SUPERIORE,CTIS007008,I.S.I.S. D. ABRUZZI POLITECNICO DEL MARE,"VIALE ARTALE ALAGONA, 99",95126,CATANIA,14,CTIS007008@istruzione.it,956136225,80009570872,CTRM00701B,C. COLOMBO,190,SEC II,"VIALE ARTALE ALAGONA 99, 95126, CATANIA",37.5278428,15.1153078
Catania,ISTITUTO SUPERIORE,CTIS007008,I.S.I.S. D. ABRUZZI POLITECNICO DEL MARE,"VIALE ARTALE ALAGONA, 99",95126,CATANIA,14,CTIS007008@istruzione.it,956136225,80009570872,CTRM00750Q,SERALE IST PROF IND. E ATTIVITA' MARINAR,0,SEC II,"VIALE ARTALE ALAGONA 99, 95126, CATANIA",37.5278428,15.1153078
Catania,ISTITUTO SUPERIORE,CTIS007008,I.S.I.S. D. ABRUZZI POLITECNICO DEL MARE,"VIALE ARTALE ALAGONA, 99",95126,CATANIA,14,CTIS007008@istruzione.it,956136225,80009570872,CTTH007018,DUCA DEGLI ABRUZZI,736,SEC II,"VIALE ARTALE ALAGONA 99, 95126, CATANIA",37.5278428,15.1153078
Catania,ISTITUTO SUPERIORE,CTIS007008,I.S.I.S. D. ABRUZZI POLITECNICO DEL MARE,"VIALE ARTALE ALAGONA, 99",95126,CATANIA,14,CTIS007008@istruzione.it,956136225,80009570872,CTTH00750L,SERALE IST.TEC NAUTICO ABRUZZI,0,SEC II,"VIA ARTALE ALAGONA 97, 95126, CATANIA",37.5284854,15.1151376
Catania,ISTITUTO D'ARTE,CTSD02000E,"LICEO ARTISTICO STATALE ""M.M. LAZZARO""","VIA GENERALE AMEGLIO, 15",95123,CATANIA,14,CTSD02000E@istruzione.it,956136410,80008150874,CTSD02000E,LICEO ARTISTICO STATALE M.M. LAZZARO,754,SEC II,"VIA GENERALE AMEGLIO 15, 95123, CATANIA",37.511942,15.0538115
Catania,ISTITUTO SUPERIORE,CTIS03900Q,"I.I.S. ""E. FERMI - GUTTUSO""","VIA NUNZIO MACCARRONE, 4",95014,GIARRE,20,CTIS03900Q@istruzione.it,956136555,92030810870,CTSD03901L,LICEO ARTISTICO STATALE RENATO GUTTUSO,424,SEC II,"VIA TRIESTE 22, 95014, GIARRE",37.724068,15.1932665
Catania,ISTITUTO SUPERIORE,CTIS03900Q,"I.I.S. ""E. FERMI - GUTTUSO""","VIA NUNZIO MACCARRONE, 4",95014,GIARRE,20,CTIS03900Q@istruzione.it,956136555,92030810870,CTTF039018,ITI ENRICO FERMI,759,SEC II,"VIA NUNZIO MACCARRONE 4, 95014, GIARRE",37.7269265,15.1943647
Catania,ISTITUTO SUPERIORE,CTIS03900Q,"I.I.S. ""E. FERMI - GUTTUSO""","VIA NUNZIO MACCARRONE, 4",95014,GIARRE,20,CTIS03900Q@istruzione.it,956136555,92030810870,CTTF03951N,ENRICO FERMI,40,SEC II,"VIA NUNZIO MACCARRONE 4, 95014, GIARRE",37.7269265,15.1943647
Catania,ISTITUTO SUPERIORE,CTIS008004,IS FILIPPO BRUNELLESCHI,VIA GUICCIARDINI,95024,ACIREALE,19,CTIS008004@istruzione.it,956136005,81005960877,CTSL00801B,I.I.S. F. BRUNELLESCHI - LICEO ARTISTICO,315,SEC II,"CORSO UMBERTO 194, 95024, ACIREALE",37.6185079,15.1675886
Catania,ISTITUTO SUPERIORE,CTIS008004,IS FILIPPO BRUNELLESCHI,VIA GUICCIARDINI,95024,ACIREALE,19,CTIS008004@istruzione.it,956136005,81005960877,CTTN008018,I.I.S. F. BRUNELLESCHI - SEZ. TURISTICO,297,SEC II,"VIA GUICCIARDINI SN, 95024, ACIREALE",37.6169108,15.1578028
Catania,ISTITUTO SUPERIORE,CTIS008004,IS FILIPPO BRUNELLESCHI,VIA GUICCIARDINI,95024,ACIREALE,19,CTIS008004@istruzione.it,956136005,81005960877,CTTN008504,CORSO SERALE TURISMO,77,SEC II,"VIA GUICCIARDINI SN, 95024, ACIREALE",37.6169108,15.1578028
Catania,LICEO ARTISTICO,CTSL01000A,"LICEO ARTISTICO "" EMILIO GRECO"" CATANIA","VIA MAVILLA, 37 - VICO BUONAFE', 9",95124,CATANIA,12,CTSL01000A@istruzione.it,956136420,80012120871,CTSL01000A,LICEO ARTISTICO EMILIO GRECO CATANIA,370,SEC II,"VIA MAVILLA 37 - VICO BUONAFE' 9, 95124, CATANIA",37.5060264,15.0763025
Catania,LICEO ARTISTICO,CTSL01000A,"LICEO ARTISTICO "" EMILIO GRECO"" CATANIA","VIA MAVILLA, 37 - VICO BUONAFE', 9",95124,CATANIA,12,CTSL01000A@istruzione.it,956136420,80012120871,CTSL01002C,LICEO ARTISTICO E. GRECO,185,SEC II,"PIAZZA V. VENETO 41, 95030, SANT'AGATA LI BATTIATI",37.5584491,15.081534
Catania,LICEO ARTISTICO,CTSL01000A,"LICEO ARTISTICO "" EMILIO GRECO"" CATANIA","VIA MAVILLA, 37 - VICO BUONAFE', 9",95124,CATANIA,12,CTSL01000A@istruzione.it,956136420,80012120871,CTSL01004E,CASA CIRCONDARIALE PIAZZA LANZA,51,SEC II,"PIAZZA LANZA 11, 95100, CATANIA",37.5146442,15.0794381
Catania,LICEO ARTISTICO,CTSL01000A,"LICEO ARTISTICO "" EMILIO GRECO"" CATANIA","VIA MAVILLA, 37 - VICO BUONAFE', 9",95124,CATANIA,12,CTSL01000A@istruzione.it,956136420,80012120871,CTSL01005G,LICEO ARTISTICO E. GRECO,274,SEC II,"VIA MOTTA, 95037, SAN GIOVANNI LA PUNTA",37.576643,15.085395
Catania,LICEO ARTISTICO,CTSL01000A,"LICEO ARTISTICO "" EMILIO GRECO"" CATANIA","VIA MAVILLA, 37 - VICO BUONAFE', 9",95124,CATANIA,12,CTSL01000A@istruzione.it,956136420,80012120871,CTSL01050Q,CATANIA,98,SEC II,"Non Disponibile, Non Disponibile, CATANIA",37.5078836,15.0830032
Catania,ISTITUTO TECNICO AERONAUTICO,CTTB01000A,ITAER A. FERRARIN,"VIA GALERMO, 172",95123,CATANIA,12,CTTB01000A@istruzione.it,956136430,80013880879,CTTB01000A,ITAER A. FERRARIN,575,SEC II,"VIA GALERMO 172, 95123, CATANIA",37.5275335,15.0670028
Catania,ISTITUTO SUPERIORE,CTIS023006,IS CARLO GEMMELLARO,"CORSO INDIPENDENZA,229",95122,CATANIA,66,CTIS023006@istruzione.it,956136250,80008610877,CTTD02301C,"GEMMELLARO - AMMINIST,FIN. E MKT",122,SEC II,"CORSO INDIPENDENZA229, 95122, CATANIA",37.5040672,15.0539913
Catania,ISTITUTO SUPERIORE,CTIS023006,IS CARLO GEMMELLARO,"CORSO INDIPENDENZA,229",95122,CATANIA,66,CTIS023006@istruzione.it,956136250,80008610877,CTTF02301P,GEMMELLARO - INFORMATICA,188,SEC II,"CORSO INDIPENDENZA 229, 95122, CATANIA",37.5040672,15.0539913
Catania,ISTITUTO SUPERIORE,CTIS023006,IS CARLO GEMMELLARO,"CORSO INDIPENDENZA,229",95122,CATANIA,66,CTIS023006@istruzione.it,956136250,80008610877,CTTN02301A,GEMMELLARO - TURISMO,501,SEC II,"CORSO INDIPENDENZA N. 229, 95122, CATANIA",37.5040672,15.0539913
Catania,ISTITUTO TECNICO COMMERCIALE,CTTD160007,"I.T.E.""GIOACCHINO RUSSO""","VIA PARINI,S.N.",95047,PATERNO',23,CTTD160007@istruzione.it,956136710,80013710878,CTTD160007,I.T.E.GIOACCHINO RUSSO,533,SEC II,"VIA PARINIS.N., 95047, PATERNO'",37.5713288,14.9022756
Catania,ISTITUTO TECNICO COMMERCIALE,CTTD160007,"I.T.E.""GIOACCHINO RUSSO""","VIA PARINI,S.N.",95047,PATERNO',23,CTTD160007@istruzione.it,956136710,80013710878,CTTD16050L,CORSO SERALE,113,SEC II,"VIA PARINI S.N., 95047, PATERNO'",37.5713288,14.9022756
Catania,IST TEC COMMERCIALE E PER GEOMETRI,CTTD18000C,PIETRO BRANCHINA,VIA PASQUALE SIMONE NERI 11,95031,ADRANO,22,CTTD18000C@istruzione.it,956136090,80023260872,CTTD18000C,PIETRO BRANCHINA,915,SEC II,"VIA PASQUALE SIMONE NERI 11, 95031, ADRANO",37.6583928,14.8425778
Catania,IST TEC COMMERCIALE E PER GEOMETRI,CTTD18000C,PIETRO BRANCHINA,VIA PASQUALE SIMONE NERI 11,95031,ADRANO,22,CTTD18000C@istruzione.it,956136090,80023260872,CTTD18050T,PIETRO BRANCHINA,97,SEC II,"VIA PASQUALE SIMONE NERI 11, 95031, ADRANO",37.6583928,14.8425778
Catania,IST TEC COMMERCIALE E PER GEOMETRI,CTTD22000N,"I.T.C. ""ENRICO DE NICOLA""",VIA G. MOTTA 85,95037,SAN GIOVANNI LA PUNTA,18,CTTD22000N@istruzione.it,956136770,90071610878,CTTD22000N,I.T.C. ENRICO DE NICOLA,482,SEC II,"VIA G. MOTTA 85, 95037, SAN GIOVANNI LA PUNTA",37.575738,15.0850623
Catania,IST TEC COMMERCIALE E PER GEOMETRI,CTTD22000N,"I.T.C. ""ENRICO DE NICOLA""",VIA G. MOTTA 85,95037,SAN GIOVANNI LA PUNTA,18,CTTD22000N@istruzione.it,956136770,90071610878,CTTD220503,IIS ENRICO DE NICOLA - CORSO SIRIO,202,SEC II,"VIA G. MOTTA N.87, 95037, SAN GIOVANNI LA PUNTA",37.5752892,15.0846666
Catania,ISTITUTO TECNICO INDUSTRIALE,CTTF01000G,ISTITUTO TECNICO ARCHIMEDE,VIALE REGINA MARGHERITA 22,95123,CATANIA,12,CTTF01000G@istruzione.it,956136440,80006210878,CTTF01000G,ISTITUTO TECNICO ARCHIMEDE,1306,SEC II,"VIALE REGINA MARGHERITA 22, 95123, CATANIA",37.5125821,15.0795169
Catania,ISTITUTO TECNICO INDUSTRIALE,CTTF01000G,ISTITUTO TECNICO ARCHIMEDE,VIALE REGINA MARGHERITA 22,95123,CATANIA,12,CTTF01000G@istruzione.it,956136440,80006210878,CTTF010501,ISTITUTO TECNICO ARCHIMEDE,244,SEC II,"VIALE REGINA MARGHERITA 22, 95123, CATANIA",37.5125821,15.0795169
Catania,ISTITUTO TECNICO INDUSTRIALE,CTTF03000R,ITI CANNIZZARO,VIA CARLO PISACANE 1,95122,CATANIA,66,CTTF03000R@istruzione.it,956136450,80008210876,CTTF03000R,ITI CANNIZZARO,638,SEC II,"VIA CARLO PISACANE 1, 95122, CATANIA",37.4993738,15.0622465
Catania,ISTITUTO TECNICO INDUSTRIALE,CTTF03000R,ITI CANNIZZARO,VIA CARLO PISACANE 1,95122,CATANIA,66,CTTF03000R@istruzione.it,956136450,80008210876,CTTF030517,CANNIZZARO,283,SEC II,"VIA CARLO PISACANE 1, 95122, CATANIA",37.4993738,15.0622465
Catania,ISTITUTO TECNICO INDUSTRIALE,CTTF140008,"ITIS ""G. FERRARIS""",VIA G. MOTTA N.85,95037,SAN GIOVANNI LA PUNTA,18,CTTF140008@istruzione.it,956136780,90071600879,CTTF140008,ITIS G. FERRARIS,543,SEC II,"VIA G. MOTTA N.85, 95037, SAN GIOVANNI LA PUNTA",37.575738,15.0850623
Catania,ISTITUTO TECNICO INDUSTRIALE,CTTF140008,"ITIS ""G. FERRARIS""",VIA G. MOTTA N.85,95037,SAN GIOVANNI LA PUNTA,18,CTTF140008@istruzione.it,956136780,90071600879,CTTF14050N,ITIS FERRARIS CORSO SERALE,0,SEC II,"VIA G. MOTTA 85, 95037, SAN GIOVANNI LA PUNTA",37.575738,15.0850623
Enna,ISTITUTO SUPERIORE,ENIS00700G,"I.I.S. ""E. MAJORANA-GEN. A. CASCINO""",PIAZZA SENATORE MARESCALCHI,94015,PIAZZA ARMERINA,27,ENIS00700G@istruzione.it,935684435,80001140864,ENPC00701V,GEN. A. CASCINO,389,SEC II,"VIA PIANO S. IPPOLITO 3, 94015, PIAZZA ARMERINA",37.379728,14.369222
Enna,ISTITUTO SUPERIORE,ENIS00700G,"I.I.S. ""E. MAJORANA-GEN. A. CASCINO""",PIAZZA SENATORE MARESCALCHI,94015,PIAZZA ARMERINA,27,ENIS00700G@istruzione.it,935684435,80001140864,ENTF007014,ETTORE MAJORANA,635,SEC II,"PIAZZA SENATORE MARESCALCHI 2, 94015, PIAZZA ARMERINA",37.3909783,14.3723916
Enna,ISTITUTO SUPERIORE,ENIS00700G,"I.I.S. ""E. MAJORANA-GEN. A. CASCINO""",PIAZZA SENATORE MARESCALCHI,94015,PIAZZA ARMERINA,27,ENIS00700G@istruzione.it,935684435,80001140864,ENTF00750C,CORSO SERALE TURISMO - PIAZZA ARM.,0,SEC II,"PIAZZA SENATORE MARESCALCHI, 94015, PIAZZA ARMERINA",37.3908894,14.3715532
Enna,ISTITUTO SUPERIORE,ENIS018002,"I.I.S. ""E. MEDI-N. VACCALLUZZO""",VIA ANTONIO VIVALDI 2,94013,LEONFORTE,26,ENIS018002@istruzione.it,935901070,91052100863,ENPC018019,N. VACCALLUZZO,705,SEC II,"VIA CAPRA 208, 94013, LEONFORTE",37.6422653,14.3945815
Enna,ISTITUTO SUPERIORE,ENIS01900T,"I.I.S. ""F.LLI TESTA""",VIALE ITRIA N. 2-2/A,94014,NICOSIA,26,ENIS01900T@istruzione.it,935647258,91052080867,ENPC019015,FRATELLI TESTA,641,SEC II,"VIALE ITRIA SNC, 94014, NICOSIA",37.7496272,14.390206
Enna,ISTITUTO SUPERIORE,ENIS01900T,"I.I.S. ""F.LLI TESTA""",VIALE ITRIA N. 2-2/A,94014,NICOSIA,26,ENIS01900T@istruzione.it,935647258,91052080867,ENRF01901E,NICOSIA,146,SEC II,"VIA IV NOVEMBRE, 94014, NICOSIA",37.7448379,14.3962256
Enna,ISTITUTO SUPERIORE,ENIS01900T,"I.I.S. ""F.LLI TESTA""",VIALE ITRIA N. 2-2/A,94014,NICOSIA,26,ENIS01900T@istruzione.it,935647258,91052080867,ENRF01951X,CORSO SERALE AGRARIO - NICOSIA,8,SEC II,"VIALE VITTORIO VENETO 59, 94014, NICOSIA",37.743145,14.3960483
Enna,ISTITUTO SUPERIORE,ENIS01900T,"I.I.S. ""F.LLI TESTA""",VIALE ITRIA N. 2-2/A,94014,NICOSIA,26,ENIS01900T@istruzione.it,935647258,91052080867,ENTD019014,ALESSANDRO VOLTA,103,SEC II,"VIALE VITTORIO VENETO 59, 94014, NICOSIA",37.743145,14.3960483
Enna,ISTITUTO SUPERIORE,ENIS00800B,"I.I.S. ""F. FEDELE""",PIAZZA EUROPA,94011,AGIRA,25,ENIS00800B@istruzione.it,935691529,80003690866,ENPM00801V,FORTUNATO FEDELE,281,SEC II,"PIAZZA EUROPA, 94011, AGIRA",37.6577462,14.5181956
Enna,ISTITUTO SUPERIORE,ENIS00800B,"I.I.S. ""F. FEDELE""",PIAZZA EUROPA,94011,AGIRA,25,ENIS00800B@istruzione.it,935691529,80003690866,ENRF008014,RITA LEVI MONTALCINI,93,SEC II,"VIA LO GIUDICE, 94010, GAGLIANO CASTELFERRATO",37.702567,14.5378219
Enna,ISTITUTO SUPERIORE,ENIS00800B,"I.I.S. ""F. FEDELE""",PIAZZA EUROPA,94011,AGIRA,25,ENIS00800B@istruzione.it,935691529,80003690866,ENRH00801G,CENTURIPE,139,SEC II,"VIA DANTE 2, Non Disponibile, CENTURIPE",37.6233031,14.7374666
Enna,ISTITUTO SUPERIORE,ENIS00800B,"I.I.S. ""F. FEDELE""",PIAZZA EUROPA,94011,AGIRA,25,ENIS00800B@istruzione.it,935691529,80003690866,ENRH00850X,CORSO SERALE ALBERGH. - CENTURIPE,72,SEC II,"PIAZZA EUROPA, 94010, CENTURIPE",37.6237934,14.7396639
Enna,ISTITUTO SUPERIORE,ENIS00800B,"I.I.S. ""F. FEDELE""",PIAZZA EUROPA,94011,AGIRA,25,ENIS00800B@istruzione.it,935691529,80003690866,ENTD00801N,SALVATORE CITELLI,234,SEC II,"VIA PALERMO 78, 94017, REGALBUTO",37.6489401,14.6383909
Enna,ISTITUTO SUPERIORE,ENIS011007,"I.I.S. ""N. COLAJANNI""",VIA VALVERDE 1,94100,ENNA,24,ENIS011007@istruzione.it,935531716,91022680861,ENPM01101P,DANTE ALIGHIERI,512,SEC II,"VIA S. INGRA' 4, 94100, ENNA",37.5589937,14.2929498
Enna,ISTITUTO SUPERIORE,ENIS017006,"I.I.S. ""L. DA VINCI""",VIA VITTORIO ALFIERI N.6,94015,PIAZZA ARMERINA,27,ENIS017006@istruzione.it,935682124,91049790867,ENPM01701N,FRANCESCO CRISPI,266,SEC II,"VIA PADOVA 50, 94015, PIAZZA ARMERINA",37.3824845,14.3755627
Enna,ISTITUTO SUPERIORE,ENIS017006,"I.I.S. ""L. DA VINCI""",VIA VITTORIO ALFIERI N.6,94015,PIAZZA ARMERINA,27,ENIS017006@istruzione.it,935682124,91049790867,ENRF017518,CORSO SERALE M. QUATTRINO - PIAZZA ARM.,46,SEC II,"C.DA S. CROCE, 94015, PIAZZA ARMERINA",37.3679771,14.3718452
Enna,ISTITUTO SUPERIORE,ENIS017006,"I.I.S. ""L. DA VINCI""",VIA VITTORIO ALFIERI N.6,94015,PIAZZA ARMERINA,27,ENIS017006@istruzione.it,935682124,91049790867,ENRI01701T,G.B. GIULIANO,135,SEC II,"VIA CARDUCCI 13, 94015, PIAZZA ARMERINA",37.3762865,14.3692464
Enna,ISTITUTO SUPERIORE,ENIS017006,"I.I.S. ""L. DA VINCI""",VIA VITTORIO ALFIERI N.6,94015,PIAZZA ARMERINA,27,ENIS017006@istruzione.it,935682124,91049790867,ENTD01701C,LEONARDO DA VINCI,227,SEC II,"VIA VITTORIO ALFIERI 6, 94015, PIAZZA ARMERINA",37.3925415,14.3710576
Enna,ISTITUTO SUPERIORE,ENIS02100T,"I.I.S. ""A. LINCOLN""","VIA SALVATORE MAZZA, 3/5",94100,ENNA,24,ENIS02100T@istruzione.it,935531402,91052200861,ENPM02102A,ISTITUTO LINGUISTICO STATALE A. LINCOLN,232,SEC II,"VIA S. MAZZA 3/5, 94100, ENNA",37.5540393,14.2919696
Enna,ISTITUTO SUPERIORE,ENIS02100T,"I.I.S. ""A. LINCOLN""","VIA SALVATORE MAZZA, 3/5",94100,ENNA,24,ENIS02100T@istruzione.it,935531402,91052200861,ENTD021014,DUCA D'AOSTA,419,SEC II,"VIA SALVATORE MAZZA 3/5, 94100, ENNA",37.5540393,14.2919696
Enna,ISTITUTO SUPERIORE,ENIS02100T,"I.I.S. ""A. LINCOLN""","VIA SALVATORE MAZZA, 3/5",94100,ENNA,24,ENIS02100T@istruzione.it,935531402,91052200861,ENTD02151D,CORSO SERALE DUCA D'AOSTA - ENNA,62,SEC II,"VIA SALVATORE MAZZA N. 3, 94100, ENNA",37.5540393,14.2919696
Enna,ISTITUTO SUPERIORE,ENIS00200C,"I.I.S. ""G. FALCONE""",VIA PIO LA TORRE 11,94012,BARRAFRANCA,27,ENIS00200C@istruzione.it,934468353,91003830865,ENPS00201V,GIOVANNI FALCONE,304,SEC II,"VIA PIO LA TORRE 11, 94012, BARRAFRANCA",37.3809001,14.2086904
Enna,ISTITUTO SUPERIORE,ENIS00200C,"I.I.S. ""G. FALCONE""",VIA PIO LA TORRE 11,94012,BARRAFRANCA,27,ENIS00200C@istruzione.it,934468353,91003830865,ENRA00201C,AIDONE,83,SEC II,"VIA RAO 2, 94010, AIDONE",37.4173254,14.4497123
Enna,ISTITUTO SUPERIORE,ENIS00200C,"I.I.S. ""G. FALCONE""",VIA PIO LA TORRE 11,94012,BARRAFRANCA,27,ENIS00200C@istruzione.it,934468353,91003830865,ENRA00202D,BARRAFRANCA,83,SEC II,"VIA PIO LA TORRE 11, 94012, BARRAFRANCA",37.3809001,14.2086904
Enna,ISTITUTO SUPERIORE,ENIS00200C,"I.I.S. ""G. FALCONE""",VIA PIO LA TORRE 11,94012,BARRAFRANCA,27,ENIS00200C@istruzione.it,934468353,91003830865,ENRA00251T,CORSO SERALE AGRARIO - AIDONE,0,SEC II,"VIA RAO N. 2, 94010, AIDONE",37.4173254,14.4497123
Enna,ISTITUTO SUPERIORE,ENIS00200C,"I.I.S. ""G. FALCONE""",VIA PIO LA TORRE 11,94012,BARRAFRANCA,27,ENIS00200C@istruzione.it,934468353,91003830865,ENRA00252V,CORSO SERALE AGRARIO - BARRAFRANCA,32,SEC II,"VIA PIO LA TORRE 11, 94012, BARRAFRANCA",37.3809001,14.2086904
Enna,ISTITUTO SUPERIORE,ENIS00200C,"I.I.S. ""G. FALCONE""",VIA PIO LA TORRE 11,94012,BARRAFRANCA,27,ENIS00200C@istruzione.it,934468353,91003830865,ENRC00201B,G. MAGNO,46,SEC II,"VIA DITTAINO 8, 94019, VALGUARNERA CAROPEPE",37.4992426,14.3897164
Enna,ISTITUTO SUPERIORE,ENIS00200C,"I.I.S. ""G. FALCONE""",VIA PIO LA TORRE 11,94012,BARRAFRANCA,27,ENIS00200C@istruzione.it,934468353,91003830865,ENRC00250Q,CORSO SERALE PROF. SERV.COMM. - VALGUAR,12,SEC II,"VIA DITTAINO 8, 94019, VALGUARNERA CAROPEPE",37.4992426,14.3897164
Enna,LICEO SCIENTIFICO,ENPS01000R,"L.S. ""P. FARINATO""","VIALE DIAZ, 61",94100,ENNA,24,ENPS01000R@istruzione.it,93526865,80000420861,ENPS01000R,L.S. P. FARINATO,467,SEC II,"Viale Diaz 61, 94100, ENNA",37.5656175,14.26971
Enna,ISTITUTO SUPERIORE,ENIS004004,"I.I.S. ""FEDERICO II""","VIA NICOSIA, 2",94100,ENNA,24,ENIS004004@istruzione.it,935500924,80006370862,ENRH004018,FEDERICO II,267,SEC II,"VIA NICOSIA 2, 94100, ENNA",37.5661343,14.2691214
Enna,ISTITUTO SUPERIORE,ENIS004004,"I.I.S. ""FEDERICO II""","VIA NICOSIA, 2",94100,ENNA,24,ENIS004004@istruzione.it,935500924,80006370862,ENRH004029,FEDERICO II CARCERARIO - ENNA,43,SEC II,"VIA PALERMO 20, 94100, ENNA",37.5660839,14.271914
Enna,ISTITUTO SUPERIORE,ENIS004004,"I.I.S. ""FEDERICO II""","VIA NICOSIA, 2",94100,ENNA,24,ENIS004004@istruzione.it,935500924,80006370862,ENRH00403A,FEDERICO II CARCERARIO - PIAZZA ARM.,13,SEC II,"VIA FABRIZIO DE ANDRE' 1, 94015, PIAZZA ARMERINA",37.3787865,14.3783109
Enna,ISTITUTO SUPERIORE,ENIS004004,"I.I.S. ""FEDERICO II""","VIA NICOSIA, 2",94100,ENNA,24,ENIS004004@istruzione.it,935500924,80006370862,ENRH00450L,CORSO SERALE ALBERGH. - ENNA,58,SEC II,"VIA NICOSIA 2, 94100, ENNA",37.5661343,14.2691214
Messina,ISTITUTO SUPERIORE,MEIS001004,I.S.MISTRETTA MANZONI,VIA NAZIONALE N. 182,98073,MISTRETTA,30,MEIS001004@istruzione.it,921381135,85000490830,MEPC00101B,ALESSANDRO MANZONI,236,SEC II,"CORSO UMBERTO I 36, 98073, MISTRETTA",37.9284128,14.3616826
Messina,ISTITUTO SUPERIORE,MEIS001004,I.S.MISTRETTA MANZONI,VIA NAZIONALE N. 182,98073,MISTRETTA,30,MEIS001004@istruzione.it,921381135,85000490830,MERA001014,CARONIA,42,SEC II,"C/DA CANNETO, 98072, CARONIA",38.0206792,14.3882892
Messina,ISTITUTO SUPERIORE,MEIS001004,I.S.MISTRETTA MANZONI,VIA NAZIONALE N. 182,98073,MISTRETTA,30,MEIS001004@istruzione.it,921381135,85000490830,MERA00150C,ISTITUTO TECNICO AGRARIO CORSO SERALE,0,SEC II,"CONTRADA PIANA S.N.C., 98072, CARONIA",38.0694527,14.6211085
Messina,ISTITUTO SUPERIORE,MEIS001004,I.S.MISTRETTA MANZONI,VIA NAZIONALE N. 182,98073,MISTRETTA,30,MEIS001004@istruzione.it,921381135,85000490830,METD00101A,ARCANGELO FLORENA,108,SEC II,"VIA MARINA, 98077, SANTO STEFANO DI CAMASTRA",38.0162488,14.3525302
Messina,ISTITUTO SUPERIORE,MEIS001004,I.S.MISTRETTA MANZONI,VIA NAZIONALE N. 182,98073,MISTRETTA,30,MEIS001004@istruzione.it,921381135,85000490830,METD00150P,IST PROF ALB A. FLORENA CORSO SERALE,29,SEC II,"VIA MARINA, 98077, SANTO STEFANO DI CAMASTRA",38.0162488,14.3525302
Messina,ISTITUTO SUPERIORE,MEIS00200X,"I.S.""G.B. IMPALLOMENI""",VIA SPOTO N. 3,98057,MILAZZO,37,MEIS00200X@istruzione.it,909224511,82001980836,MEPC002017,G. B. IMPALLOMENI,324,SEC II,"VIA CAP. SPOTO 3, 98057, MILAZZO",38.211766,15.2319439
Messina,ISTITUTO SUPERIORE,MEIS00200X,"I.S.""G.B. IMPALLOMENI""",VIA SPOTO N. 3,98057,MILAZZO,37,MEIS00200X@istruzione.it,909224511,82001980836,MEPS00201A,ANTONIO MEUCCI,323,SEC II,"VIA CAP. SPOTO 3, 98057, MILAZZO",38.211766,15.2319439
Messina,ISTITUTO SUPERIORE,MEIS00300Q,"I.I.S. SANT'AGATA DI M.LLO "" L.SCIASCIA""",C/DA MUTI,98076,SANT'AGATA DI MILITELLO,31,MEIS00300Q@istruzione.it,941701720,95001840834,MEPC003013,"CLASSICO, LINGUISTICO, SCIENZE UMANE",591,SEC II,"CONTRADA CANNAMELATA, 98076, SANT'AGATA DI MILITELLO",38.065699,14.6251312
Messina,ISTITUTO SUPERIORE,MEIS00300Q,"I.I.S. SANT'AGATA DI M.LLO "" L.SCIASCIA""",C/DA MUTI,98076,SANT'AGATA DI MILITELLO,31,MEIS00300Q@istruzione.it,941701720,95001840834,MEPS003016,"LICEO SCIENTIFICO,SCIENZE APPLICATE",465,SEC II,"C/DA MUTI S.N.C., 98076, SANT'AGATA DI MILITELLO",38.0642725,14.637021
Messina,ISTITUTO SUPERIORE,MEIS02900X,"""MAUROLICO"" MESSINA",VIA CAVOUR 63,98122,MESSINA,28,MEIS02900X@istruzione.it,90672110,80007300835,MEPC029017,MAUROLICO MESSINA,530,SEC II,"VIA CAVOUR 63, 98122, MESSINA",38.1920794,15.5526796
Messina,ISTITUTO SUPERIORE,MEIS02900X,"""MAUROLICO"" MESSINA",VIA CAVOUR 63,98122,MESSINA,28,MEIS02900X@istruzione.it,90672110,80007300835,MEPS02901A,GALILEO GALILEI,433,SEC II,"VIA NUOVA GRANGIARA, 98048, SPADAFORA",38.2198925,15.3783446
Messina,ISTITUTO SUPERIORE,MEIS03100X,LA FARINA - BASILE,VIA ORATORIO DELLA PACE 5,98122,MESSINA,28,MEIS03100X@istruzione.it,9044910,97110560832,MEPC031017,LICEO CLASSICO G. LA FARINA,678,SEC II,"VIA ORATORIO DELLA PACE 5, 98122, MESSINA",38.1949825,15.5536353
Messina,ISTITUTO SUPERIORE,MEIS03100X,LA FARINA - BASILE,VIA ORATORIO DELLA PACE 5,98122,MESSINA,28,MEIS03100X@istruzione.it,9044910,97110560832,MESD03101R,LICEO ARTISTICO E. BASILE -MESSINA,509,SEC II,"VIA U. FIORE - SS. ANNUNZIATA -CONCA D'ORO, 98168, MESSINA",38.2244271,15.557264
Messina,ISTITUTO SUPERIORE,MEIS03200Q,ISTITUTO SUPERIORE CAMINITI-TRIMARCHI,VIA LUNGOMARE CENTRO,98028,SANTA TERESA DI RIVA,36,MEIS03200Q@istruzione.it,942793130,97110570831,MEPC032013,ENRICO TRIMARCHI,162,SEC II,"VIA LUNGOMARE CENTRO, 98028, SANTA TERESA DI RIVA",37.9392613,15.362806
Messina,ISTITUTO SUPERIORE,MEIS03200Q,ISTITUTO SUPERIORE CAMINITI-TRIMARCHI,VIA LUNGOMARE CENTRO,98028,SANTA TERESA DI RIVA,36,MEIS03200Q@istruzione.it,942793130,97110570831,MEPM032017,LICEO SCIENZE UMANE,13,SEC II,"VIA MONT BIANCO, 98037, LETOJANNI",37.8812643,15.3055926
Messina,ISTITUTO SUPERIORE,MEIS03200Q,ISTITUTO SUPERIORE CAMINITI-TRIMARCHI,VIA LUNGOMARE CENTRO,98028,SANTA TERESA DI RIVA,36,MEIS03200Q@istruzione.it,942793130,97110570831,MEPS032016,LICEO SCIENTIFICO STATALE,345,SEC II,"VIA LUNGOMARE CENTRO, 98028, SANTA TERESA DI RIVA",37.9392613,15.362806
Messina,ISTITUTO SUPERIORE,MEIS03200Q,ISTITUTO SUPERIORE CAMINITI-TRIMARCHI,VIA LUNGOMARE CENTRO,98028,SANTA TERESA DI RIVA,36,MEIS03200Q@istruzione.it,942793130,97110570831,MEPS032027,CARMELO CAMINITI,424,SEC II,"C.DA MOSCATELLA, 98035, GIARDINI-NAXOS",37.8277558,15.2651969
Messina,ISTITUTO SUPERIORE,MEIS03200Q,ISTITUTO SUPERIORE CAMINITI-TRIMARCHI,VIA LUNGOMARE CENTRO,98028,SANTA TERESA DI RIVA,36,MEIS03200Q@istruzione.it,942793130,97110570831,MEPS032038,CARMELO CAMINITI,38,SEC II,"VIA NAPOLI, 98034, FRANCAVILLA DI SICILIA",37.9010059,15.1345845
Messina,ISTITUTO SUPERIORE,MEIS03200Q,ISTITUTO SUPERIORE CAMINITI-TRIMARCHI,VIA LUNGOMARE CENTRO,98028,SANTA TERESA DI RIVA,36,MEIS03200Q@istruzione.it,942793130,97110570831,MERC03201P,ISTITUTO PROF. PER ISERVIZI COMMERCIALI,35,SEC II,"VIA MONTEBIANCO, 98037, LETOJANNI",37.8812643,15.3055926
Messina,ISTITUTO SUPERIORE,MEIS03400B,BARCELLONA MEDI,VIA DEGLI STUDI 74,98051,BARCELLONA POZZO DI GOTTO,38,MEIS03400B@istruzione.it,909761268,90017860835,MEPC03401P,LUIGI VALLI,150,SEC II,"VIA DEGLI STUDI, 98051, BARCELLONA POZZO DI GOTTO",38.143449,15.2194983
Messina,ISTITUTO SUPERIORE,MEIS03400B,BARCELLONA MEDI,VIA DEGLI STUDI 74,98051,BARCELLONA POZZO DI GOTTO,38,MEIS03400B@istruzione.it,909761268,90017860835,MEPM03401V,24 MAGGIO 1915,103,SEC II,"VIA G. SIRACUSA 1, 98053, CASTROREALE",38.0987919,15.2111724
Messina,ISTITUTO SUPERIORE,MEIS03400B,BARCELLONA MEDI,VIA DEGLI STUDI 74,98051,BARCELLONA POZZO DI GOTTO,38,MEIS03400B@istruzione.it,909761268,90017860835,MEPS03401T,BARCELLONA MEDI,409,SEC II,"VIA S.ANDREA S.N., 98051, BARCELLONA POZZO DI GOTTO",38.1525324,15.216082
Messina,LICEO CLASSICO,MEPC060006,LICEO VITTORIO EMANUELE III PATTI,VIA TRIESTE 43,98066,PATTI,33,MEPC060006@istruzione.it,94121409,86000610831,MEPC060006,LICEO VITTORIO EMANUELE III PATTI,706,SEC II,"VIA TRIESTE 43, 98066, PATTI",38.1402054,14.9694957
Messina,ISTITUTO MAGISTRALE,MEPM010009,""" AINIS "" MESSINA",VIA ANTONELLO FRERI,98124,MESSINA,29,MEPM010009@istruzione.it,909488001,80006710836,MEPM010009,AINIS MESSINA,923,SEC II,"VIA ANTONELLO FRERI, 98124, MESSINA",38.1721501,15.5410855
Messina,ISTITUTO SUPERIORE,MEIS01300A,"I.S.""BISAZZA"" ME",VIALE ANNUNZIATA N.10/A,98168,MESSINA,28,MEIS01300A@istruzione.it,90358716,80006550836,MEPM01301T,LICEO LING. E SCIENZE UMANE BISAZZA,560,SEC II,"VIALE ANNUNZIATA N. 10/A - RIONE MATTEOTTI, 98168, MESSINA",38.2187451,15.5600771
Messina,ISTITUTO SUPERIORE,MEIS01300A,"I.S.""BISAZZA"" ME",VIALE ANNUNZIATA N.10/A,98168,MESSINA,28,MEIS01300A@istruzione.it,90358716,80006550836,MEPS01301R,LICEO SCIENTIFICO BISAZZA,308,SEC II,"VIALE ANNUNZIATA 10/A, 98168, MESSINA",38.2181025,15.5606423
Messina,ISTITUTO SUPERIORE,MEIS00800V,IS ISA CONTI ELLER VAINICHER,VIA TORRENTE S.LUCIA,98055,LIPARI,37,MEIS00800V@istruzione.it,909811120,81001050830,MEPS008019,SEZ. SCIENTIFICA,195,SEC II,"VIA TORRENTE S. LUCIA, 98055, LIPARI",38.4636966,14.9519605
Messina,ISTITUTO SUPERIORE,MEIS00800V,IS ISA CONTI ELLER VAINICHER,VIA TORRENTE S.LUCIA,98055,LIPARI,37,MEIS00800V@istruzione.it,909811120,81001050830,METD008015,ISA CONTI ELLER VAINICHER,181,SEC II,"VIA TORRENTE S.LUCIA, 98055, LIPARI",38.4636966,14.9519605
Messina,ISTITUTO SUPERIORE,MEIS00900P,I.S.MINUTOLI MESSINA,CONTRADA GAZZI FUCILE,98147,MESSINA,29,MEIS00900P@istruzione.it,90685800,97061930836,MEPS009026,LICEO SCIENTIFICO QUASIMODO,137,SEC II,"CONTRADA GAZZI FUCILE, 98147, MESSINA",38.1716465,15.5289891
Messina,ISTITUTO SUPERIORE,MEIS00900P,I.S.MINUTOLI MESSINA,CONTRADA GAZZI FUCILE,98147,MESSINA,29,MEIS00900P@istruzione.it,90685800,97061930836,META00901E,PIETRO CUPPARI,225,SEC II,"SAN PLACIDO CALONERO', 98139, MESSINA",38.0781183,15.4875534
Messina,ISTITUTO SUPERIORE,MEIS00900P,I.S.MINUTOLI MESSINA,CONTRADA GAZZI FUCILE,98147,MESSINA,29,MEIS00900P@istruzione.it,90685800,97061930836,METD009011,ITC QUASIMODO MESSINA,344,SEC II,"FONDO FUCILE, 98147, MESSINA",38.1730985,15.5313355
Messina,ISTITUTO SUPERIORE,MEIS00900P,I.S.MINUTOLI MESSINA,CONTRADA GAZZI FUCILE,98147,MESSINA,29,MEIS00900P@istruzione.it,90685800,97061930836,METL00901B,G. MINUTOLI,472,SEC II,"FONDO FUCILE C.DA GAZZI, 98147, MESSINA",38.1730985,15.5313355
Messina,ISTITUTO SUPERIORE,MEIS00900P,I.S.MINUTOLI MESSINA,CONTRADA GAZZI FUCILE,98147,MESSINA,29,MEIS00900P@istruzione.it,90685800,97061930836,METL00902C,SEDE CARCERARIA GAZZI,45,SEC II,"FONDO FUCILE GAZZI, Non Disponibile, MESSINA",38.1723455,15.5332892
Messina,ISTITUTO SUPERIORE,MEIS00900P,I.S.MINUTOLI MESSINA,CONTRADA GAZZI FUCILE,98147,MESSINA,29,MEIS00900P@istruzione.it,90685800,97061930836,METL00951R,G. MINUTOLI (CORSO SERALE),165,SEC II,"FONDO FUCILE C.DA GAZZI, 98147, MESSINA",38.1730985,15.5313355
Messina,LICEO SCIENTIFICO,MEPS010008,"""ARCHIMEDE"" MESSINA",V.LE REG. MARGHERITA 3,98121,MESSINA,28,MEPS010008@istruzione.it,9052438,80002840835,MEPS010008,ARCHIMEDE MESSINA,1482,SEC II,"V.LE REG. MARGHERITA 3, 98121, MESSINA",38.1990723,15.5465015
Messina,LICEO SCIENTIFICO,MEPS03000D,"""SEGUENZA"" MESSINA",VIA S. AGOSTINO N.1,98122,MESSINA,28,MEPS03000D@istruzione.it,90673569,80005740834,MEPS03000D,SEGUENZA MESSINA,1148,SEC II,"VIA S. AGOSTINO N.1, 98122, MESSINA",38.193521,15.5532418
Messina,LICEO SCIENTIFICO,MEPS22000L,LICEO LUCIO PICCOLO,VIA CONSOLARE ANTICA SNC,98071,CAPO D'ORLANDO,32,MEPS22000L@istruzione.it,941902103,95029310836,MEPS22000L,LICEO LUCIO PICCOLO,1008,SEC II,"VIA CONSOLARE ANTICA SNC, 98071, CAPO D'ORLANDO",38.140497,14.7344111
Messina,ISTITUTO SUPERIORE,MEIS01100P,I.S.BARCELLONA FERRARI,VICO PICARDI,98051,BARCELLONA POZZO DI GOTTO,38,MEIS01100P@istruzione.it,909702516,83000870838,MERA01101P,I.P.S.A.,93,SEC II,"CONTRADA MARGI, 98051, BARCELLONA POZZO DI GOTTO",38.1437587,15.2442885
Messina,ISTITUTO SUPERIORE,MEIS01100P,I.S.BARCELLONA FERRARI,VICO PICARDI,98051,BARCELLONA POZZO DI GOTTO,38,MEIS01100P@istruzione.it,909702516,83000870838,MERA01102Q,I.P.S.A.,62,SEC II,"CTR. BAGLI, 98057, MILAZZO",38.2209947,15.2415039
Messina,ISTITUTO SUPERIORE,MEIS01100P,I.S.BARCELLONA FERRARI,VICO PICARDI,98051,BARCELLONA POZZO DI GOTTO,38,MEIS01100P@istruzione.it,909702516,83000870838,MERA011503,IST. PROF. AGRICOLT. AMB. (SERALE),187,SEC II,"CONTRADA MARGI, 98051, BARCELLONA POZZO DI GOTTO",38.1437587,15.2442885
Messina,ISTITUTO SUPERIORE,MEIS01100P,I.S.BARCELLONA FERRARI,VICO PICARDI,98051,BARCELLONA POZZO DI GOTTO,38,MEIS01100P@istruzione.it,909702516,83000870838,MERA011514,CORSO SERALE,39,SEC II,"Non Disponibile, Non Disponibile, MILAZZO",38.2209947,15.2415039
Messina,ISTITUTO SUPERIORE,MEIS01100P,I.S.BARCELLONA FERRARI,VICO PICARDI,98051,BARCELLONA POZZO DI GOTTO,38,MEIS01100P@istruzione.it,909702516,83000870838,MERI01101A,I.P.S.I.A.,77,SEC II,"VICO PICARDI, 98051, BARCELLONA POZZO DI GOTTO",38.1510994,15.2008409
Messina,ISTITUTO SUPERIORE,MEIS01100P,I.S.BARCELLONA FERRARI,VICO PICARDI,98051,BARCELLONA POZZO DI GOTTO,38,MEIS01100P@istruzione.it,909702516,83000870838,MERI01102B,G. FERRARIS,220,SEC II,"VIA GARIBALDI, 98042, PACE DEL MELA",38.19697,15.3222059
Messina,ISTITUTO SUPERIORE,MEIS01100P,I.S.BARCELLONA FERRARI,VICO PICARDI,98051,BARCELLONA POZZO DI GOTTO,38,MEIS01100P@istruzione.it,909702516,83000870838,MERI01103C,SEZIONE CARCERARIA C/O OPG,44,SEC II,"VICO PICARDI, 92051, BARCELLONA POZZO DI GOTTO",38.1510994,15.2008409
Messina,ISTITUTO SUPERIORE,MEIS01100P,I.S.BARCELLONA FERRARI,VICO PICARDI,98051,BARCELLONA POZZO DI GOTTO,38,MEIS01100P@istruzione.it,909702516,83000870838,MERI01150P,G. FERRARIS - SERALE,61,SEC II,"Non Disponibile, Non Disponibile, PACE DEL MELA",38.1797607,15.3072792
Messina,ISTITUTO SUPERIORE,MEIS023001,IIS BORGHESE - FARANDA - PATTI,VIA MONSIGNORE A.FICARRA,98066,PATTI,33,MEIS023001@istruzione.it,94121007,94014110830,MERA023011,GEPY FARANDA PATTI,59,SEC II,"VIA TRIESTE 42, 98066, PATTI",38.1403203,14.9701879
Messina,ISTITUTO SUPERIORE,MEIS023001,IIS BORGHESE - FARANDA - PATTI,VIA MONSIGNORE A.FICARRA,98066,PATTI,33,MEIS023001@istruzione.it,94121007,94014110830,MERI02301L,GEPY FARANDA PATTI,171,SEC II,"VIA KENNEDY 2, 98066, PATTI",38.1434607,14.9630598
Messina,ISTITUTO SUPERIORE,MEIS023001,IIS BORGHESE - FARANDA - PATTI,VIA MONSIGNORE A.FICARRA,98066,PATTI,33,MEIS023001@istruzione.it,94121007,94014110830,METD023017,ITCG PATTI BORGHESE,592,SEC II,"VIA MONSIGNORE A.FICARRA, 98066, PATTI",38.1435602,14.9681322
Messina,ISTITUTO SUPERIORE,MEIS023001,IIS BORGHESE - FARANDA - PATTI,VIA MONSIGNORE A.FICARRA,98066,PATTI,33,MEIS023001@istruzione.it,94121007,94014110830,METD02351L,IST.TECNICO COMMERCIALE BORGHESE,38,SEC II,"VIA MONSIGNORE A.FICARRA, Non Disponibile, PATTI",38.1435602,14.9681322
Messina,ISTITUTO SUPERIORE,MEIS02400R,ITC CAPO D'ORLANDO MERENDINO,CONTRADA SANTA LUCIA,98071,CAPO D'ORLANDO,32,MEIS02400R@istruzione.it,941901063,95002390839,MERA02401R,I.P.A. E AMBIENTE E ODONTOTECNICO,193,SEC II,"C.DA S. LUCIA 34, 98071, CAPO D'ORLANDO",38.1524519,14.740381
Messina,ISTITUTO SUPERIORE,MEIS02400R,ITC CAPO D'ORLANDO MERENDINO,CONTRADA SANTA LUCIA,98071,CAPO D'ORLANDO,32,MEIS02400R@istruzione.it,941901063,95002390839,MERA024505,ITC CAPO D'ORLANDO MERENDINO SERALE,12,SEC II,"CONTRADA SANTA LUCIA, 98071, CAPO D'ORLANDO",38.1502182,14.7365915
Messina,ISTITUTO SUPERIORE,MEIS02400R,ITC CAPO D'ORLANDO MERENDINO,CONTRADA SANTA LUCIA,98071,CAPO D'ORLANDO,32,MEIS02400R@istruzione.it,941901063,95002390839,MERC02401Q,SERVIZI COMMERCIALI - NASO,36,SEC II,"VIA MARCONI, 98074, NASO",38.1220498,14.7903287
Messina,ISTITUTO SUPERIORE,MEIS02400R,ITC CAPO D'ORLANDO MERENDINO,CONTRADA SANTA LUCIA,98071,CAPO D'ORLANDO,32,MEIS02400R@istruzione.it,941901063,95002390839,MERH024011,IPSAR BROLO,155,SEC II,"VIA TOMASI DI LAMPEDUSA, 98061, BROLO",38.1532719,14.8321992
Messina,ISTITUTO SUPERIORE,MEIS02400R,ITC CAPO D'ORLANDO MERENDINO,CONTRADA SANTA LUCIA,98071,CAPO D'ORLANDO,32,MEIS02400R@istruzione.it,941901063,95002390839,MERH024509,GEPY FARANDA BROLO SERALE,38,SEC II,"CONTRADA PETRARO, 98061, BROLO",38.1343587,14.8881643
Messina,ISTITUTO SUPERIORE,MEIS02400R,ITC CAPO D'ORLANDO MERENDINO,CONTRADA SANTA LUCIA,98071,CAPO D'ORLANDO,32,MEIS02400R@istruzione.it,941901063,95002390839,METD024013,ITC CAPO D'ORLANDO MERENDINO,136,SEC II,"C/DA SANTA LUCIA, 98071, CAPO D'ORLANDO",38.1502182,14.7365915
Messina,ISTITUTO SUPERIORE,MEIS01600T,"I.I.S. ""RENATO GUTTUSO""",VIA XX LUGLIO,98057,MILAZZO,37,MEIS01600T@istruzione.it,909282938,82001800836,MERC01601R,SERV.COMMERCIO-ENOGASTRONOMIA-OSP.ALBERG,347,SEC II,"VIA RISORGIMENTO 67, 98057, MILAZZO",38.2226552,15.237811
Messina,ISTITUTO SUPERIORE,MEIS01600T,"I.I.S. ""RENATO GUTTUSO""",VIA XX LUGLIO,98057,MILAZZO,37,MEIS01600T@istruzione.it,909282938,82001800836,MERC016505,IST. PROF. SERVIZI ENOGASTR. (SERALE),19,SEC II,"VIA RISORGIMENTO N. 67, 98057, MILAZZO",38.2226552,15.237811
Messina,ISTITUTO SUPERIORE,MEIS01600T,"I.I.S. ""RENATO GUTTUSO""",VIA XX LUGLIO,98057,MILAZZO,37,MEIS01600T@istruzione.it,909282938,82001800836,MESD01602Q,LICEO ARTISTICO,335,SEC II,"VIA GRAMSCI, 98057, MILAZZO",38.2025608,15.2536678
Messina,ISTITUTO SUPERIORE,MEIS01600T,"I.I.S. ""RENATO GUTTUSO""",VIA XX LUGLIO,98057,MILAZZO,37,MEIS01600T@istruzione.it,909282938,82001800836,MESD016503,LICEO ARTISTICO (SERALE),0,SEC II,"VIA COLLODI, 98049, SPADAFORA",38.2229893,15.3778382
Messina,ISTITUTO SUPERIORE,MEIS019009,"IST.ISTR.SUP. ""ANTONELLO"" MESSINA",V.LE GIOSTRA N.2,98121,MESSINA,28,MEIS019009@istruzione.it,905731583,80009620834,MERC019018,IIS ANTONELLO MESSINA,817,SEC II,"V.LE GIOSTRA N.2, 98121, MESSINA",38.2128546,15.5404306
Messina,ISTITUTO SUPERIORE,MEIS019009,"IST.ISTR.SUP. ""ANTONELLO"" MESSINA",V.LE GIOSTRA N.2,98121,MESSINA,28,MEIS019009@istruzione.it,905731583,80009620834,MERC01950L,IST PROF.LE IPSSCT ANTONELLO SERALE,70,SEC II,"VIALE GIOSTRA N.2, 98121, MESSINA",38.2128546,15.5404306
Messina,ISTITUTO SUPERIORE,MEIS027008,VERONA TRENTO - MESSINA,VIA UGO BASSI IS. 148,98123,MESSINA,29,MEIS027008@istruzione.it,902934854,3224560833,MERI02701X,I.P. MAJORANA,117,SEC II,"VIALE GIOSTRA N.2, 98121, MESSINA",38.2128546,15.5404306
Messina,ISTITUTO SUPERIORE,MEIS027008,VERONA TRENTO - MESSINA,VIA UGO BASSI IS. 148,98123,MESSINA,29,MEIS027008@istruzione.it,902934854,3224560833,METF02701R,IST. TECN. TECNOLOGICO VERONA TRENTO,1422,SEC II,"VIA UGO BASSI IS 148, 98122, MESSINA",38.1859218,15.5581542
Messina,ISTITUTO SUPERIORE,MEIS027008,VERONA TRENTO - MESSINA,VIA UGO BASSI IS. 148,98123,MESSINA,29,MEIS027008@istruzione.it,902934854,3224560833,METF027505,IST TECN. TECNOL. VERONA TRENTO SERALE,77,SEC II,"VIA UGO BASSI IS. 148, 98122, MESSINA",38.1859218,15.5581542
Messina,ISTITUTO SUPERIORE,MEIS03300G,"I.I.S.S. ""PUGLIATTI "" TAORMINA",CONTRADA ARANCIO SNC,98039,TAORMINA,35,MEIS03300G@istruzione.it,94250237,87002140835,MERI033017,FURCI SICULO,132,SEC II,"Non Disponibile, 98023, FURCI SICULO",37.9613815,15.3819913
Messina,ISTITUTO SUPERIORE,MEIS03300G,"I.I.S.S. ""PUGLIATTI "" TAORMINA",CONTRADA ARANCIO SNC,98039,TAORMINA,35,MEIS03300G@istruzione.it,94250237,87002140835,MERI03350G,IST PROF IND ART SERALE,25,SEC II,"Non Disponibile, 98023, FURCI SICULO",37.9613815,15.3819913
Messina,ISTITUTO SUPERIORE,MEIS03300G,"I.I.S.S. ""PUGLIATTI "" TAORMINA",CONTRADA ARANCIO SNC,98039,TAORMINA,35,MEIS03300G@istruzione.it,94250237,87002140835,METD03301T,I.I.S.S. PUGLIATTI TAORMINA,728,SEC II,"CONTRADA ARANCIO SNC, 98039, TAORMINA",37.8263077,15.2549482
Messina,ISTITUTO SUPERIORE,MEIS03300G,"I.I.S.S. ""PUGLIATTI "" TAORMINA",CONTRADA ARANCIO SNC,98039,TAORMINA,35,MEIS03300G@istruzione.it,94250237,87002140835,METD03302V,FURCI SICULO,354,SEC II,"VIA MARCONI, 98023, FURCI SICULO",37.9613815,15.3819913
Messina,ISTITUTO SUPERIORE,MEIS03300G,"I.I.S.S. ""PUGLIATTI "" TAORMINA",CONTRADA ARANCIO SNC,98039,TAORMINA,35,MEIS03300G@istruzione.it,94250237,87002140835,METD033506,IST TEC. COMM.LE PUGLIATTI SERALE,18,SEC II,"CONTRADA ARANCIO SNC, 98039, TAORMINA",37.8263077,15.2549482
Messina,ISTITUTO SUPERIORE,MEIS03700V,"ISTITUTO ISTRUZIONE SUPERIORE ""A.M.JACI""",VIA CESARE BATTISTI 88,98122,MESSINA,28,MEIS03700V@istruzione.it,909488006,97135960835,METD037015,IST. TEC. ECONOMICO A.M.JACI,408,SEC II,"VIA CESARE BATTISTI 88, 98122, MESSINA",38.189948,15.5541237
Messina,ISTITUTO SUPERIORE,MEIS03700V,"ISTITUTO ISTRUZIONE SUPERIORE ""A.M.JACI""",VIA CESARE BATTISTI 88,98122,MESSINA,28,MEIS03700V@istruzione.it,909488006,97135960835,METD03751E,IST. TEC. ECONOMICO A.M. JACI,128,SEC II,"VIA CESARE BATTISTI 88, 98122, MESSINA",38.189948,15.5541237
Messina,IST TEC COMMERCIALE E PER GEOMETRI,METD05000E,I.T. L.DA VINCI ECONOMICO TECNOLOGICO,VIA COLONNELLO MAGISTRI,98057,MILAZZO,37,METD05000E@istruzione.it,909281320,92011390835,METD05000E,I.T. L.DA VINCI ECONOMICO TECNOLOGICO,1060,SEC II,"VIA COLONNELLO MAGISTRI, 98057, MILAZZO",38.2153999,15.2396128
Messina,IST TEC COMMERCIALE E PER GEOMETRI,METD05000E,I.T. L.DA VINCI ECONOMICO TECNOLOGICO,VIA COLONNELLO MAGISTRI,98057,MILAZZO,37,METD05000E@istruzione.it,909281320,92011390835,METD05050X,L. DA VINCI,0,SEC II,"Non Disponibile, Non Disponibile, MILAZZO",38.2209947,15.2415039
Messina,IST TEC COMMERCIALE E PER GEOMETRI,METD08000A,"ITET ""E. FERMI"" ECONOMICO E TECNOLOGICO",VIA PITAGORA 42,98051,BARCELLONA POZZO DI GOTTO,38,METD08000A@istruzione.it,909798024,83001090832,METD08000A,ITET E. FERMI ECONOMICO E TECNOLOGICO,480,SEC II,"VIA PITAGORA 42, 98051, BARCELLONA POZZO DI GOTTO",38.1425369,15.2182612
Messina,IST TEC COMMERCIALE E PER GEOMETRI,METD08000A,"ITET ""E. FERMI"" ECONOMICO E TECNOLOGICO",VIA PITAGORA 42,98051,BARCELLONA POZZO DI GOTTO,38,METD08000A@istruzione.it,909798024,83001090832,METD08001B,SEDE CARCERARIA,95,SEC II,"Non Disponibile, Non Disponibile, BARCELLONA POZZO DI GOTTO",38.1471908,15.2129391
Messina,IST TEC COMMERCIALE E PER GEOMETRI,METD08000A,"ITET ""E. FERMI"" ECONOMICO E TECNOLOGICO",VIA PITAGORA 42,98051,BARCELLONA POZZO DI GOTTO,38,METD08000A@istruzione.it,909798024,83001090832,METD08050Q,ITET E. FERMI ECON. E TECN. (SERALE),281,SEC II,"VIA PITAGORA N. 42, 98051, BARCELLONA POZZO DI GOTTO",38.1425369,15.2182612
Messina,IST TEC COMMERCIALE E PER GEOMETRI,METD110001,"ITET "" G. TOMASI DI LAMPEDUSA""",VIA PARCO DEGLI ULIVI,98076,SANT'AGATA DI MILITELLO,31,METD110001@istruzione.it,941702142,95008780835,METD110001,ITET G. TOMASI DI LAMPEDUSA,271,SEC II,"Via PARCO DEGLI ULIVI S.N., 98076, SANT'AGATA DI MILITELLO",38.0687526,14.6346069
Messina,IST TEC COMMERCIALE E PER GEOMETRI,METD110001,"ITET "" G. TOMASI DI LAMPEDUSA""",VIA PARCO DEGLI ULIVI,98076,SANT'AGATA DI MILITELLO,31,METD110001@istruzione.it,941702142,95008780835,METD110012,ISTITUTO TECNICO ECONOMICO,43,SEC II,"Via G. Garibaldi 1, 98078 Tortorici (ME)",38.0305776,14.824618
Messina,IST TEC COMMERCIALE E PER GEOMETRI,METD110001,"ITET "" G. TOMASI DI LAMPEDUSA""",VIA PARCO DEGLI ULIVI,98076,SANT'AGATA DI MILITELLO,31,METD110001@istruzione.it,941702142,95008780835,METD11050A,ITET G. TOMASI DI LAMPEDUSA - SERALE,65,SEC II,"Via PARCO DEGLI ULIVI S.N., 98076, SANT'AGATA DI MILITELLO",38.0687526,14.6346069
Messina,ISTITUTO TECNICO INDUSTRIALE,METF020001,ISTITUTO TECNICO TECNOLOGICO E.MAJORANA,"VIA TRE MONTI , 4",98057,MILAZZO,37,METF020001@istruzione.it,909221775,92013510836,METF020001,ISTITUTO TECNICO TECNOLOGICO E.MAJORANA,1673,SEC II,"VIA TRE MONTI 4, 98057, MILAZZO",38.2217781,15.2364094
Messina,ISTITUTO TECNICO INDUSTRIALE,METF03000G,ITT-LSSA COPERNICO,VIA ROMA 250,98051,BARCELLONA POZZO DI GOTTO,38,METF03000G@istruzione.it,909797333,83001030838,METF03000G,ITT-LSSA COPERNICO,768,SEC II,"VIA ROMA 250, 98051, BARCELLONA POZZO DI GOTTO",38.1420318,15.2177496
Messina,ISTITUTO TECNICO INDUSTRIALE,METF03000G,ITT-LSSA COPERNICO,VIA ROMA 250,98051,BARCELLONA POZZO DI GOTTO,38,METF03000G@istruzione.it,909797333,83001030838,METF030501,ITT-LSSA COPERNICO BARCELLONA P.G SERALE,14,SEC II,"VIA ROMA 250, 98051, BARCELLONA POZZO DI GOTTO",38.1420318,15.2177496
Messina,ISTITUTO TECNICO INDUSTRIALE,METF040006,ITI S.AGATA M.LLO TORRICELLI,VIA VALLONE POSTA,98076,SANT'AGATA DI MILITELLO,31,METF040006@istruzione.it,941706035,84004130831,METF040006,ITI S.AGATA M.LLO TORRICELLI,771,SEC II,"Non Disponibile, 98076, SANT'AGATA DI MILITELLO",38.0687526,14.6346069
Messina,ISTITUTO TECNICO INDUSTRIALE,METF040006,ITI S.AGATA M.LLO TORRICELLI,VIA VALLONE POSTA,98076,SANT'AGATA DI MILITELLO,31,METF040006@istruzione.it,941706035,84004130831,METF04050G,IST TEC IND.LE TORRICELLI CORSO SERALE,12,SEC II,"VIA VALLONE POSTA SNC, 98076, SANT'AGATA DI MILITELLO",38.0706955,14.640054
Messina,ISTITUTO TECNICO NAUTICO,METH01000T,"I.T.T.L. ""CAIO DUILIO""",VIA GIUSEPPE LA FARINA N.70,98123,MESSINA,29,METH01000T@istruzione.it,902931850,80004460830,METH01000T,I.T.T.L. CAIO DUILIO,687,SEC II,"Via Natoli (G.MAZZINI-D.GALLO) 83, 98123, MESSINA",38.1817564,15.5553167
Messina,ISTITUTO TECNICO NAUTICO,METH01000T,"I.T.T.L. ""CAIO DUILIO""",VIA GIUSEPPE LA FARINA N.70,98123,MESSINA,29,METH01000T@istruzione.it,902931850,80004460830,METH010507,ITTL CAIO DUILIO MESSINA CORSO SERALE,27,SEC II,"Via Giuseppe La Farina, 70, 98123 Messina (ME)",38.1822533,15.5564563
Palermo,ISTITUTO SUPERIORE,PAIS00100T,IS G. UGDULENA,VIA DEL MAZZIERE,90018,TERMINI IMERESE,46,PAIS00100T@istruzione.it,918145643,87001110821,PAPC001015,G. UGDULENA,451,SEC II,"VIA DEL MAZZIERE, 90018, TERMINI IMERESE",37.9855778,13.69048
